     2.11           OBSERVATION DATA    M (MIXED)           RINEX VERSION / TYPE
teqc  2016Nov7      KASI/KOREA          20231219 11:48:02UTCPGM / RUN BY / DATE
Linux 2.4.20-8|Pentium IV|gcc|Linux|486/DX+                 COMMENT
  0.0000      (antenna height)                              COMMENT
 +36.39942706 (latitude)                                    COMMENT
+127.37448509 (longitude)                                   COMMENT
0116.854      (elevation)                                   COMMENT
BIT 2 OF LLI FLAGS DATA COLLECTED UNDER A/S CONDITION       COMMENT
23902M002 (COGO code)                                       COMMENT
DAEJ                                                        MARKER NAME
23902M002                                                   MARKER NUMBER
KASI GPS            KASI/KOREA                              OBSERVER / AGENCY
5412K48145          TRIMBLE NETR9       5.44                REC # / TYPE / VERS
4923363230          TRM59800.00     SCIS                    ANT # / TYPE
 -3120042.4825  4084614.6856  3764025.7815                  APPROX POSITION XYZ
        0.0000        0.0000        0.0000                  ANTENNA: DELTA H/E/N
     1     1                                                WAVELENGTH FACT L1/2
    10    L1    L2    L5    C1    P1    P2    C5    S1    S2# / TYPES OF OBSERV
          S5                                                # / TYPES OF OBSERV
    18                                                      LEAP SECONDS
 SNR is mapped to RINEX snr flag value [0-9]                COMMENT
  L1 & L2: min(max(int(snr_dBHz/6), 0), 9)                  COMMENT
  2023    12    19    11    30    0.0000000     GPS         TIME OF FIRST OBS
                                                            END OF HEADER
 23 12 19 11 30  0.0000000  0 21G03G21G22R14G07G02R24G14R17G30R23G08
                                R15G17E25E11E24E33E12E31E10
 126545514.673 5  98606921.18344  94498305.538 6  24080786.438
  24080801.180    24080803.105          31.500          26.700          40.100
 108421042.604 7  84484159.44146                  20631781.164
  20631785.734                          43.900          38.400
 127179218.820 5  99100621.16742                  24201376.273
  24201381.566                          33.300          16.300
 101763013.192 7  79149068.218 7                  19090464.539    19090463.906
  19090469.488                          46.600          46.900
 113451404.340 7  88403721.42247                  21589056.313
  21589062.910                          42.200          43.800
 108275840.479 7  84371042.42246                  20604157.633
  20604160.953                          45.000          40.500
 105046304.014 7  81702736.171 7                  19644088.773    19644088.156
  19644092.230                          46.200          46.000
 117030681.429 6  91192691.02144  87393037.632 7  22270168.859
  22270175.289    22270179.102          38.100          27.300          46.800
 109523443.060 7  85185169.438 7                  20466984.000    20466983.363
  20466988.289                          44.900          45.000
 115368506.529 7  89897555.56347  86151829.357 8  21953877.625
  21953885.379    21953885.988          42.200          42.600          48.700
 123821457.348 5                                  23147019.453    23147018.910
                                        33.400
 113605132.641 6  88523807.56745  84835315.893 8  21618271.305
  21618278.973    21618278.270          41.300          31.900          49.200
 112854172.940 7  87775365.543 7                  21119081.305    21119081.324
  21119086.383                          42.400          43.200
 123678992.970 5  96373224.08844                  23535311.414
  23535318.090                          32.500          28.700
 134539715.277 6                 100468031.763 7  25602044.594
                  25602050.105          40.800                          44.300
 123995434.822 7                  92594020.241 7  23595540.930
                  23595543.309          42.400                          43.400
 122658623.050 7                  91595818.187 8  23341131.172
                  23341135.102          47.200                          51.000
 140806038.705 5                 105147531.750 6  26794449.047
                  26794453.129          35.800                          40.400
 124002146.676 7                  92599053.532 8  23596810.344
                  23596812.289          43.100                          48.000
 132871123.196 7                  99222067.752 7  25284492.773
                  25284499.016          43.200                          45.400
 123476135.530 8                  92206303.545 8  23496700.734
                  23496705.844          48.200                          51.500
 23 12 19 11 30  1.0000000  0 21G03G21G22R14G07G02R24G14R17G30R23G08
                                R15G17E25E11E24E33E12E31E10
 126542120.437 5  98604276.34944  94495770.963 6  24080140.930
  24080155.277    24080157.215          32.000          25.600          40.000
 108422904.920 7  84485610.60446                  20632135.375
  20632140.125                          43.900          38.100
 127176326.695 5  99098367.58642                  24200827.281
  24200831.203                          33.300          15.600
 101763413.513 7  79149379.587 7                  19090539.313    19090539.020
  19090544.586                          46.600          47.100
 113453181.879 6  88405106.51747                  21589395.133
  21589401.191                          41.800          43.600
 108276625.999 7  84371654.51646                  20604307.242
  20604310.246                          45.000          40.500
 105047934.174 7  81704004.069 7                  19644393.438    19644393.055
  19644397.191                          46.100          46.200
 117027819.438 6  91190460.90144  87390900.415 7  22269624.742
  22269630.691    22269634.473          37.900          28.100          46.600
 109521538.118 7  85183687.822 7                  20466627.805    20466627.320
  20466632.336                          45.000          45.000
 115368603.909 7  89897631.44947  86151902.076 8  21953895.945
  21953904.031    21953904.441          42.100          42.400          48.400
 123825166.522 5                                  23147714.586    23147712.297
                                        33.100
 113607002.412 6  88525264.53245  84836712.144 8  21618627.445
  21618634.855    21618634.160          40.900          31.800          48.800
 112850839.312 7  87772772.726 7                  21118458.086    21118457.703
  21118462.512                          42.200          43.200
 123676877.900 5  96371575.98744                  23534908.852
  23534915.645                          32.500          29.100
 134537433.734 6                 100466328.012 7  25601610.758
                  25601615.949          40.800                          44.000
 123993324.476 7                  92592444.348 7  23595139.430
                  23595141.777          42.100                          43.600
 122658466.653 7                  91595701.403 8  23341101.445
                  23341105.367          47.200                          51.200
 140808718.678 6                 105149533.063 6  26794959.047
                  26794963.215          36.000                          40.400
 124002739.338 7                  92599496.104 7  23596922.820
                  23596925.086          43.300                          47.700
 132873126.018 7                  99223563.371 7  25284873.938
                  25284880.070          43.500                          45.300
 123475339.024 8                  92205708.750 8  23496549.344
                  23496554.445          48.300                          51.500
 23 12 19 11 30  2.0000000  0 21G03G21G22R14G07G02R24G14R17G30R23G08
                                R15G17E25E11E24E33E12E31E10
 126538726.270 5  98601631.58244  94493236.354 6  24079495.609
  24079509.258    24079511.129          32.000          27.500          40.200
 108424767.675 7  84487062.10346                  20632489.828
  20632494.453                          43.800          38.000
 127173434.539 5  99096113.91742                  24200275.492
  24200280.793                          33.200          16.300
 101763814.668 7  79149691.584 7                  19090615.328    19090614.348
  19090619.961                          46.400          47.100
 113454959.914 7  88406491.99647                  21589733.836
  21589739.461                          42.300          43.800
 108277412.019 7  84372266.99646                  20604456.602
  20604459.824                          44.900          40.600
 105049564.786 7  81705272.323 7                  19644698.820    19644698.023
  19644702.160                          46.400          45.600
 117024957.604 6  91188230.90244  87388763.354 7  22269079.977
  22269086.133    22269089.824          38.600          27.200          46.400
 109519633.698 7  85182206.610 7                  20466271.664    20466271.438
  20466276.539                          44.800          44.700
 115368701.909 6  89897707.81347  86151975.246 8  21953914.852
  21953922.602    21953923.176          41.700          42.600          48.500
 123828875.769 5                                  23148407.719    23148405.695
                                        33.100
 113608872.284 6  88526721.57545  84838108.490 8  21618982.523
  21618990.637    21618990.016          41.100          31.700          49.100
 112847506.093 7  87770180.207 7                  21117833.539    21117833.758
  21117838.641                          42.400          43.500
 123674762.966 5  96369927.99644                  23534506.156
  23534512.988                          32.900          28.600
 134535152.222 6                 100464624.301 7  25601176.547
                  25601182.051          40.900                          44.300
 123991214.454 7                  92590868.663 7  23594737.813
                  23594740.184          42.500                          43.400
 122658310.560 7                  91595584.833 8  23341071.758
                  23341075.633          47.400                          50.900
 140811398.746 5                 105151534.405 6  26795469.094
                  26795473.219          35.800                          40.600
 124003332.364 7                  92599938.946 8  23597035.656
                  23597037.977          43.600                          48.200
 132875129.064 7                  99225059.156 7  25285254.984
                  25285261.219          42.900                          45.500
 123474542.930 8                  92205114.258 8  23496397.836
                  23496402.813          48.200                          51.300
 23 12 19 11 30  3.0000000  0 21G03G21G22R14G07G02R24G14R17G30R23G08
                                R15G17E25E11E24E33E12E31E10
 126535332.070 5  98598986.77844  94490701.764 6  24078850.305
  24078863.414    24078865.332          31.900          25.300          40.200
 108426630.907 7  84488513.97446                  20632844.633
  20632849.047                          43.500          37.600
 127170542.392 5  99093860.28542                  24199725.977
  24199730.305                          33.200          16.900
 101764216.661 7  79150004.265 7                  19090690.555    19090689.754
  19090695.359                          46.400          46.900
 113456738.469 7  88407877.88347                  21590071.961
  21590078.023                          42.500          43.700
 108278198.537 7  84372879.87246                  20604606.555
  20604609.578                          44.700          40.600
 105051195.838 7  81706540.926 7                  19645003.391    19645003.242
  19645007.117                          46.400          45.100
 117022095.963 6  91186001.05644  87386626.411 7  22268534.969
  22268541.547    22268545.379          38.100          26.800          46.300
 109517729.785 7  85180725.793 7                  20465916.023    20465915.492
  20465920.730                          44.800          44.300
 115368800.516 7  89897784.64247  86152048.895 8  21953933.398
  21953941.266    21953942.055          42.000          42.500          48.500
 123832584.849 5                                  23149101.391    23149098.984
                                        33.700
 113610742.339 6  88528178.75745  84839504.950 8  21619338.438
  21619346.293    21619345.859          41.200          31.400          48.800
 112844173.299 7  87767588.053 7                  21117210.391    21117210.195
  21117215.066                          42.700          43.200
 123672648.144 5  96368280.07244                  23534103.539
  23534110.418                          33.000          29.300
 134532870.806 6                 100462920.646 7  25600742.492
                  25600747.852          41.000                          44.200
 123989104.758 7                  92589293.244 7  23594336.336
                  23594338.773          42.600                          43.700
 122658154.788 7                  91595468.507 8  23341042.008
                  23341046.051          47.400                          51.100
 140814078.914 5                 105153535.830 6  26795978.969
                  26795983.219          35.800                          40.600
 124003925.809 7                  92600382.107 8  23597148.578
                  23597150.906          43.300                          48.300
 132877132.367 7                  99226555.126 7  25285636.102
                  25285642.539          42.600                          45.300
 123473747.236 8                  92204520.075 8  23496246.453
                  23496251.414          48.200                          51.300
 23 12 19 11 30  4.0000000  0 21G03G21G22R14G07G02R24G14R17G30R23G08
                                R15G17E25E11E24E33E12E31E10
 126531937.832 5  98596341.92444  94488167.159 6  24078203.508
  24078217.211    24078219.371          31.300          26.800          40.400
 108428494.608 7  84489966.20946                  20633199.305
  20633203.770                          43.300          38.000
 127167650.269 5  99091606.69942                  24199175.891
  24199179.914                          33.200          16.300
 101764619.527 7  79150317.590 7                  19090766.242    19090765.570
  19090770.848                          46.600          46.800
 113458517.552 7  88409264.18047                  21590410.125
  21590416.531                          42.400          43.600
 108278985.570 7  84373493.14446                  20604756.211
  20604759.340                          44.800          40.500
 105052827.354 7  81707809.880 7                  19645309.141    19645308.109
  19645312.199                          46.100          45.600
 117019234.487 6  91183771.33044  87384489.590 7  22267990.820
  22267997.047    22268000.797          37.900          27.400          46.300
 109515826.445 7  85179245.414 7                  20465560.219    20465559.906
  20465565.105                          44.900          44.400
 115368899.792 6  89897862.00847  86152123.012 8  21953952.328
  21953960.313    21953960.742          41.600          42.500          48.500
 123836293.958 5                                  23149794.477    23149792.715
                                        33.400
 113612612.525 6  88529636.04745  84840901.526 8  21619694.461
  21619702.324    21619701.688          41.100          31.900          48.900
 112840840.958 7  87764996.226 7                  21116586.313    21116586.586
  21116591.461                          42.300          42.800
 123670533.496 5  96366632.30144                  23533700.602
  23533707.910                          32.400          29.300
 134530589.511 6                 100461217.067 7  25600308.297
                  25600313.672          41.100                          44.200
 123986995.369 7                  92587718.063 7  23593934.820
                  23593937.309          42.500                          43.600
 122657999.322 7                  91595352.424 8  23341012.594
                  23341016.516          47.400                          51.200
 140816759.169 6                 105155537.322 6  26796488.859
                  26796493.328          36.100                          40.500
 124004519.633 7                  92600825.558 8  23597261.648
                  23597263.875          43.600                          48.300
 132879135.929 7                  99228051.284 7  25286017.516
                  25286023.711          42.700                          45.300
 123472951.969 7                  92203926.212 8  23496095.023
                  23496100.090          47.800                          50.800
 23 12 19 11 30  5.0000000  0 21G03G21G22R14G07G02R24G14R17G30R23G08
                                R15G17E25E11E24E33E12E31E10
 126528543.699 5  98593697.18844  94485632.565 6  24077558.016
  24077571.184    24077573.648          31.900          27.100          40.400
 108430358.757 7  84491418.78846                  20633554.016
  20633558.598                          43.400          38.100
 127164758.127 5  99089353.09842                  24198625.211
  24198629.555                          33.500          16.300
 101765023.196 7  79150631.560 7                  19090842.367    19090841.059
  19090846.695                          46.700          46.900
 113460297.148 7  88410650.87847                  21590749.273
  21590755.145                          42.400          43.800
 108279773.125 7  84374106.82346                  20604906.273
  20604909.211                          44.700          40.700
 105054459.338 7  81709079.207 7                  19645614.039    19645613.414
  19645617.395                          45.900          45.500
 117016373.181 6  91181541.75944  87382352.924 7  22267445.969
  22267452.582    22267456.242          38.300          27.300          46.400
 109513923.611 7  85177765.446 7                  20465205.258    20465204.090
  20465209.508                          45.100          44.500
 115368999.689 7  89897939.84547  86152197.621 8  21953971.039
  21953979.273    21953979.727          42.200          42.400          48.500
 123840002.977 5                                  23150488.047    23150485.434
                                        33.100
 113614482.891 6  88531093.47445  84842298.218 8  21620050.438
  21620058.313    21620057.703          41.100          31.800          49.100
 112837509.051 7  87762404.778 7                  21115962.531    21115963.047
  21115967.859                          42.300          43.000
 123668418.971 5  96364984.62544                  23533298.109
  23533305.516                          33.400          29.100
 134528308.290 6                 100459513.574 7  25599874.039
                  25599879.680          41.400                          44.200
 123984886.303 7                  92586143.122 7  23593533.516
                  23593536.070          42.300                          43.600
 122657844.185 7                  91595236.564 8  23340983.133
                  23340986.980          47.000                          50.900
 140819439.536 5                 105157538.894 6  26796999.273
                  26797003.293          35.800                          40.800
 124005113.864 7                  92601269.299 7  23597374.773
                  23597377.039          43.800                          47.900
 132881139.708 7                  99229547.633 7  25286398.617
                  25286405.035          43.000                          45.100
 123472157.101 7                  92203332.646 8  23495943.891
                  23495948.820          47.900                          51.000
 23 12 19 11 30  6.0000000  0 21G03G21G22R14G07G02R24G14R17G30R23G08
                                R15G17E25E11E24E33E12E31E10
 126525149.501 5  98591052.39344  94483097.982 6  24076911.547
  24076925.246    24076927.645          32.400          26.900          40.500
 108432223.367 7  84492871.73946                  20633908.648
  20633913.281                          43.400          37.800
 127161866.053 5  99087099.47242                  24198075.125
  24198079.184                          33.400          17.400
 101765427.707 7  79150946.187 7                  19090917.828    19090916.844
  19090922.398                          46.700          47.000
 113462077.291 7  88412038.00347                  21591087.758
  21591093.859                          42.400          43.700
 108280561.179 7  84374720.89246                  20605055.961
  20605059.176                          44.600          40.700
 105056091.754 7  81710348.870 7                  19645918.938    19645918.637
  19645922.617                          46.100          45.500
 117013512.083 6  91179312.32244  87380216.383 7  22266902.047
  22266908.047    22266911.871          37.900          27.900          46.400
 109512021.285 7  85176285.858 7                  20464849.570    20464848.473
  20464853.996                          44.700          44.400
 115369100.223 7  89898018.18547  86152272.688 8  21953989.906
  21953998.555    21953998.871          42.000          42.500          48.400
 123843711.972 5                                  23151179.891    23151178.762
                                        33.100
 113616353.389 6  88532551.00745  84843695.019 8  21620405.992
  21620414.145    21620413.508          41.300          31.900          49.300
 112834177.635 7  87759813.646 7                  21115339.125    21115339.660
  21115344.258                          42.400          42.800
 123666304.504 5  96363336.99444                  23532897.508
  23532903.090                          33.300          28.900
 134526027.161 6                 100457810.127 7  25599440.031
                  25599445.496          40.700                          44.000
 123982777.559 7                  92584568.424 7  23593132.422
                  23593134.617          42.300                          43.400
 122657689.350 7                  91595120.940 8  23340953.609
                  23340957.398          47.400                          50.900
 140822120.021 6                 105159540.549 6  26797509.242
                  26797513.379          36.500                          40.200
 124005708.520 7                  92601713.355 8  23597488.055
                  23597490.082          43.500                          48.300
 132883143.771 7                  99231044.169 7  25286780.203
                  25286786.477          43.200                          45.100
 123471362.669 8                  92202739.402 8  23495792.633
                  23495797.688          48.200                          51.500
 23 12 19 11 30  7.0000000  0 21G03G21G22R14G07G02R24G14R17G30R23G08
                                R15G17E25E11E24E33E12E31E10
 126521755.367 5  98588407.63544  94480563.385 6  24076266.344
  24076279.125    24076281.555          31.900          26.100          40.500
 108434088.425 7  84494325.02546                  20634263.570
  20634268.395                          43.300          37.900
 127158973.931 5  99084845.89542                  24197524.297
  24197528.809                          33.500          16.300
 101765833.067 7  79151261.462 7                  19090994.156    19090993.098
  19090998.566                          46.400          47.100
 113463857.916 7  88413425.50047                  21591426.148
  21591432.582                          42.300          43.800
 108281349.731 7  84375335.34746                  20605206.352
  20605209.145                          44.600          40.900
 105057724.618 7  81711618.881 7                  19646224.031    19646223.824
  19646227.910                          46.100          46.000
 117010651.128 6  91177083.02144  87378079.973 7  22266357.148
  22266363.598    22266367.340          38.400          27.800          46.300
 109510119.502 7  85174806.680 7                  20464494.391    20464493.211
  20464498.566                          44.700          44.900
 115369201.374 7  89898096.99947  86152348.240 8  21954009.242
  21954017.801    21954018.191          42.000          42.700          48.900
 123847420.933 5                                  23151872.000    23151872.668
                                        33.800
 113618223.994 6  88534008.61345  84845091.896 8  21620762.516
  21620770.105    21620769.598          41.500          32.300          49.200
 112830846.599 7  87757222.854 7                  21114716.461    21114716.578
  21114720.910                          42.900          43.000
 123664190.260 5  96361689.53244                  23532494.586
  23532500.832                          33.200          29.300
 134523746.105 6                 100456106.763 7  25599006.016
                  25599011.586          41.300                          44.000
 123980669.151 7                  92582993.929 7  23592731.000
                  23592733.348          42.300                          43.600
 122657534.835 7                  91595005.558 8  23340924.188
                  23340928.066          47.000                          50.800
 140824800.589 6                 105161542.258 6  26798019.195
                  26798023.480          36.000                          40.500
 124006303.538 7                  92602157.688 8  23597601.297
                  23597603.352          43.300                          48.200
 132885148.061 7                  99232540.863 7  25287161.547
                  25287167.664          42.800                          45.300
 123470568.651 7                  92202146.457 8  23495641.594
                  23495646.426          47.900                          51.300
 23 12 19 11 30  8.0000000  0 21G03G21G22R14G07G02R24G14R17G30R23G08
                                R15G17E25E11E24E33E12E31E10
 126518361.076 5  98585762.75844  94478028.804 6  24075619.703
  24075633.352    24075635.789          32.200          26.400          40.600
 108435953.937 7  84495778.67046                  20634618.289
  20634623.367                          43.300          38.200
 127156081.848 5  99082592.34142                  24196974.023
  24196978.375                          33.000          16.900
 101766239.279 7  79151577.405 7                  19091069.906    19091069.230
  19091074.730                          46.400          47.400
 113465639.048 7  88414813.39847                  21591765.070
  21591771.621                          42.300          43.900
 108282138.776 7  84375950.19746                  20605356.117
  20605359.340                          44.900          40.800
 105059357.974 7  81712889.267 7                  19646529.664    19646529.410
  19646533.461                          46.000          46.100
 117007790.343 6  91174853.83644  87375943.678 7  22265812.977
  22265819.266    22265823.020          38.200          27.600          46.600
 109508218.227 7  85173327.919 7                  20464139.891    20464137.766
  20464143.203                          45.200          44.700
 115369303.153 6  89898176.31047  86152424.239 8  21954028.906
  21954037.098    21954037.535          41.600          42.600          48.800
 123851129.830 5                                  23152566.422    23152565.996
                                        32.800
 113620094.736 6  88535466.33345  84846488.893 8  21621118.344
  21621126.094    21621125.496          41.100          31.900          49.500
 112827515.935 7  87754632.324 7                  21114093.016    21114093.348
  21114097.496                          42.600          43.000
 123662076.043 5  96360042.10344                  23532091.633
  23532098.414                          32.800          29.900
 134521465.148 6                 100454403.442 7  25598571.852
                  25598577.531          41.000                          44.100
 123978561.019 6                  92581419.695 7  23592329.758
                  23592332.336          41.900                          43.800
 122657380.597 7                  91594890.371 8  23340894.875
                  23340898.645          47.000                          50.800
 140827481.232 6                 105163544.062 6  26798529.430
                  26798533.563          36.200                          40.400
 124006898.941 7                  92602602.302 8  23597714.711
                  23597716.563          43.000                          48.200
 132887152.555 7                  99234037.727 7  25287542.703
                  25287549.238          43.600                          45.500
 123469775.013 7                  92201553.811 8  23495490.617
                  23495495.523          47.800                          51.800
 23 12 19 11 30  9.0000000  0 21G03G21G22R14G07G02R24G14R17G30R23G08
                                R15G17E25E11E24E33E12E31E10
 126514966.928 5  98583117.99144  94475494.228 6  24074973.969
  24074987.516    24074989.801          32.300          26.900          40.900
 108437819.940 7  84497232.70146                  20634973.766
  20634978.449                          43.700          38.100
 127153189.782 5  99080338.78342                  24196424.266
  24196428.203                          33.800          16.300
 101766646.377 7  79151894.044 7                  19091145.859    19091145.738
  19091151.242                          46.100          47.600
 113467420.768 7  88416201.74447                  21592103.867
  21592110.551                          42.100          43.900
 108282928.395 7  84376565.47946                  20605506.797
  20605509.711                          45.000          40.900
 105060991.858 7  81714160.054 7                  19646836.195    19646834.965
  19646839.020                          45.800          46.000
 117004929.810 6  91172624.86044  87373807.541 7  22265268.688
  22265274.965    22265278.582          38.300          27.500          46.300
 109506317.547 7  85171849.612 7                  20463783.656    20463782.859
  20463788.121                          45.300          44.700
 115369405.614 6  89898256.15147  86152500.751 8  21954047.984
  21954056.559    21954056.961          41.400          42.600          48.400
 123854838.753 5                                  23153259.617    23153258.813
                                        33.000
 113621965.693 6  88536924.22445  84847886.019 8  21621474.672
  21621482.188    21621481.664          40.800          31.700          49.600
 112824185.741 7  87752042.167 7                  21113469.742    21113470.078
  21113474.277                          42.700          43.000
 123659962.070 5  96358394.84544                  23531690.414
  23531696.145                          33.100          29.100
 134519184.301 6                 100452700.217 7  25598137.563
                  25598143.496          41.500                          44.200
 123976453.252 6                  92579845.710 7  23591928.734
                  23591931.230          41.900                          43.800
 122657226.715 7                  91594775.473 8  23340865.539
                  23340869.504          47.300                          51.000
 140830162.018 6                 105165545.947 6  26799039.422
                  26799043.719          36.100                          40.200
 124007494.763 7                  92603047.248 8  23597827.891
                  23597830.004          43.300                          48.500
 132889157.343 7                  99235534.816 7  25287924.484
                  25287930.691          43.000                          45.100
 123468981.834 8                  92200961.506 8  23495339.664
                  23495344.512          48.000                          51.600
 23 12 19 11 30 10.0000000  0 21G03G21G22R14G07G02R24G14R17G30R23G08
                                R15G17E25E11E24E33E12E31E10
 126511572.827 5  98580473.26844  94472959.653 6  24074328.781
  24074341.383    24074343.902          31.900          27.000          40.500
 108439686.414 7  84498687.09846                  20635329.141
  20635333.691                          43.100          37.800
 127150297.751 5  99078085.24042                  24195874.500
  24195878.102                          33.300          16.900
 101767054.315 7  79152211.324 7                  19091222.563    19091222.316
  19091227.660                          46.400          47.500
 113469202.981 6  88417590.49147                  21592443.391
  21592449.781                          41.900          43.600
 108283718.512 7  84377181.15746                  20605657.203
  20605659.949                          44.700          40.700
 105062626.182 7  81715431.185 7                  19647141.055    19647140.531
  19647144.633                          45.800          46.100
 117002069.430 6  91170395.97844  87371671.544 7  22264724.297
  22264730.520    22264734.246          38.500          27.000          46.300
 109504417.418 7  85170371.738 7                  20463428.953    20463427.523
  20463433.113                          44.900          44.500
 115369508.726 6  89898336.49547  86152577.740 8  21954067.984
  21954076.234    21954076.621          41.500          42.600          48.500
 123858547.672 5                                  23153954.727    23153952.176
                                        33.300
 113623836.779 6  88538382.21945  84849283.256 8  21621830.734
  21621838.230    21621837.645          41.100          32.100          49.700
 112820855.973 7  87749452.367 7                  21112846.586    21112846.766
  21112851.242                          42.300          43.100
 123657848.160 5  96356747.65444                  23531287.688
  23531293.887                          33.600          29.300
 134516903.583 6                 100450997.073 7  25597703.969
                  25597709.570          41.600                          44.600
 123974345.783 6                  92578271.973 7  23591527.844
                  23591530.152          41.800                          43.700
 122657073.187 7                  91594660.820 8  23340836.367
                  23340840.191          47.000                          50.700
 140832842.943 5                 105167547.925 6  26799549.414
                  26799553.664          35.500                          40.200
 124008091.010 7                  92603492.490 8  23597941.531
                  23597943.543          43.100                          48.600
 132891162.407 7                  99237032.085 7  25288305.859
                  25288312.125          42.900                          45.000
 123468189.073 8                  92200369.502 8  23495188.891
                  23495193.660          48.000                          51.300
 23 12 19 11 30 11.0000000  0 21G03G21G22R14G07G02R24G14R17G30R23G08
                                R15G17E25E11E24E33E12E31E10
 126508178.649 5  98577828.47844  94470425.115 6  24073682.266
  24073695.543    24073697.863          32.400          27.400          40.600
 108441553.356 7  84500141.85346                  20635684.000
  20635688.914                          43.200          38.000
 127147405.693 5  99075831.71042                  24195323.820
  24195327.680                          33.800          17.400
 101767463.051 7  79152529.236 7                  19091298.813    19091299.008
  19091304.434                          46.300          47.000
 113470985.724 6  88418979.63647                  21592782.789
  21592789.000                          41.800          43.500
 108284509.136 7  84377797.22946                  20605807.609
  20605810.359                          45.000          40.600
 105064260.916 7  81716702.664 7                  19647446.750    19647446.398
  19647450.309                          45.900          46.100
 116999209.252 6  91168167.26544  87369535.690 7  22264180.531
  22264186.285    22264189.988          38.700          27.600          46.400
 109502517.788 7  85168894.259 7                  20463073.859    20463072.434
  20463077.965                          44.900          44.800
 115369612.426 6  89898417.30447  86152655.198 8  21954088.453
  21954095.953    21954096.352          41.700          42.600          48.800
 123862256.504 5                                  23154646.844    23154645.703
                                        33.600
 113625707.982 6  88539840.28745  84850680.599 8  21622186.203
  21622194.160    21622193.664          41.400          31.600          49.700
 112817526.694 7  87746862.917 7                  21112223.445    21112224.070
  21112228.121                          42.600          43.100
 123655734.443 5  96355100.59844                  23530885.570
  23530891.813                          33.700          29.700
 134514622.934 6                 100449293.986 7  25597269.711
                  25597275.598          41.900                          44.300
 123972238.662 6                  92576698.465 7  23591126.750
                  23591129.234          41.600                          43.700
 122656919.946 7                  91594546.394 8  23340807.172
                  23340811.082          47.000                          50.900
 140835523.943 5                 105169549.973 6  26800059.992
                  26800064.031          35.700                          40.200
 124008687.624 7                  92603938.009 8  23598054.789
                  23598057.082          42.900                          48.200
 132893167.672 7                  99238529.536 7  25288687.273
                  25288693.738          43.300                          45.200
 123467396.722 7                  92199777.816 8  23495038.031
                  23495042.922          47.900                          51.400
 23 12 19 11 30 12.0000000  0 21G03G21G22R14G07G02R24G14R17G30R23G08
                                R15G17E25E11E24E33E12E31E10
 126504784.506 5  98575183.73144  94467890.532 6  24073036.719
  24073049.590    24073052.039          32.800          27.300          40.900
 108443420.701 7  84501596.92746                  20636039.273
  20636044.063                          43.400          38.000
 127144513.670 5  99073578.17142                  24194772.352
  24194777.289                          33.800          16.900
 101767872.585 7  79152847.753 7                  19091375.930    19091375.645
  19091381.152                          46.300          47.400
 113472768.979 6  88420369.18847                  21593122.133
  21593128.336                          41.900          43.400
 108285300.237 7  84378413.66746                  20605958.086
  20605960.980                          44.900          40.500
 105065896.089 7  81717974.457 7                  19647752.758    19647752.320
  19647756.102                          46.100          46.100
 116996349.184 6  91165938.64044  87367399.941 7  22263635.828
  22263642.086    22263645.719          38.300          27.700          46.200
 109500618.666 7  85167417.158 7                  20462719.203    20462717.480
  20462723.063                          45.100          44.600
 115369716.791 7  89898498.63647  86152733.113 8  21954108.031
  21954115.855    21954116.156          42.400          42.600          48.400
 123865965.288 5                                  23155340.617    23155339.230
                                        33.300
 113627579.343 6  88541298.50645  84852078.035 8  21622542.180
  21622550.387    21622549.746          40.900          32.200          49.500
 112814197.805 7  87744273.795 7                  21111600.438    21111600.922
  21111605.203                          42.800          43.200
 123653620.790 5  96353453.60145                  23530483.625
  23530489.539                          34.000          30.000
 134512342.342 6                 100447590.944 7  25596835.492
                  25596841.551          41.800                          44.600
 123970131.815 7                  92575125.176 7  23590726.008
                  23590728.254          42.100                          43.900
 122656766.994 7                  91594432.178 8  23340778.016
                  23340781.965          47.000                          50.900
 140838205.018 5                 105171552.068 6  26800569.922
                  26800574.117          35.700                          40.400
 124009284.619 7                  92604383.826 8  23598168.461
                  23598170.590          43.000                          48.100
 132895173.189 7                  99240027.167 7  25289069.031
                  25289075.293          43.100                          44.900
 123466604.765 7                  92199186.426 8  23494887.398
                  23494892.180          47.800                          51.500
 23 12 19 11 30 13.0000000  0 21G03G21G22R14G07G02R24G14R17G30R23G08
                                R15G17E25E11E24E33E12E31E10
 126501390.299 5  98572538.91144  94465355.970 6  24072391.805
  24072403.543    24072405.969          32.900          28.300          40.900
 108445288.478 7  84503052.34446                  20636394.922
  20636399.598                          43.400          38.300
 127141621.604 5  99071324.65342                  24194222.438
  24194227.121                          33.500          16.900
 101768282.913 7  79153166.900 7                  19091453.273    19091452.527
  19091458.203                          46.100          46.600
 113474552.705 6  88421759.10647                  21593461.859
  21593467.707                          41.600          43.600
 108286091.815 7  84379030.49146                  20606108.391
  20606111.617                          45.100          40.900
 105067531.702 7  81719246.613 7                  19648058.188    19648058.059
  19648062.016                          45.800          45.700
 116993489.308 6  91163710.16044  87365264.312 7  22263091.555
  22263097.738    22263101.555          38.200          27.700          46.200
 109498720.034 7  85165940.446 7                  20462364.648    20462362.777
  20462368.207                          45.200          44.200
 115369821.735 7  89898580.40947  86152811.479 8  21954127.625
  21954135.730    21954136.039          42.000          42.800          48.300
 123869674.104 5                                  23156033.766    23156032.430
                                        32.900
 113629450.828 6  88542756.79845  84853475.573 8  21622898.938
  21622906.531    21622905.875          41.000          31.500          49.300
 112810869.354 7  87741684.986 7                  21110978.164    21110978.199
  21110982.324                          42.800          43.000
 123651507.219 5  96351806.67844                  23530080.898
  23530087.352                          34.100          28.400
 134510061.826 6                 100445887.985 7  25596401.695
                  25596407.609          41.400                          44.700
 123968025.284 7                  92573552.094 7  23590325.016
                  23590327.281          42.100                          43.700
 122656614.330 7                  91594318.169 8  23340749.094
                  23340752.914          46.800                          50.900
 140840886.168 5                 105173554.250 6  26801079.930
                  26801084.379          35.600                          40.200
 124009881.979 7                  92604829.909 8  23598282.289
                  23598284.348          42.900                          48.100
 132897178.922 7                  99241524.952 7  25289450.781
                  25289457.121          42.800                          44.900
 123465813.196 7                  92198595.315 8  23494736.578
                  23494741.664          47.900                          51.600
 23 12 19 11 30 14.0000000  0 21G03G21G22R14G07G02R24G14R17G30R23G08
                                R15G17E25E11E24E33E12E31E10
 126497996.062 5  98569894.06144  94462821.394 6  24071744.555
  24071757.660    24071760.086          33.100          26.800          40.700
 108447156.731 7  84504508.12746                  20636750.250
  20636755.055                          43.400          37.900
 127138729.523 5  99069071.06042                  24193671.797
  24193677.020                          34.000          16.300
 101768694.077 7  79153486.696 7                  19091530.992    19091529.758
  19091535.301                          46.000          46.800
 113476336.952 6  88423149.42847                  21593801.273
  21593807.102                          41.700          43.800
 108286883.899 7  84379647.69646                  20606258.883
  20606262.418                          44.600          40.600
 105069167.807 7  81720519.130 7                  19648364.422    19648364.074
  19648367.930                          46.100          46.100
 116990629.581 6  91161481.81044  87363128.812 7  22262547.891
  22262553.422    22262557.398          38.400          28.000          46.100
 109496821.955 7  85164464.151 7                  20462009.367    20462008.070
  20462013.641                          45.000          44.400
 115369927.306 6  89898662.66847  86152890.324 8  21954148.266
  21954155.801    21954156.199          41.800          42.600          48.800
 123873382.815 5                                  23156727.813    23156725.211
                                        33.100
 113631322.436 6  88544215.20345  84854873.217 8  21623255.039
  21623262.684    21623262.125          40.900          31.100          49.100
 112807541.297 7  87739096.498 7                  21110354.625    21110355.059
  21110359.586                          42.700          43.400
 123649393.759 5  96350159.82244                  23529678.906
  23529685.313                          34.100          29.000
 134507781.387 6                 100444185.061 7  25595967.758
                  25595973.715          40.900                          44.500
 123965919.047 7                  92571979.259 7  23589924.531
                  23589926.566          42.000                          43.600
 122656461.979 7                  91594204.400 8  23340720.000
                  23340723.922          47.200                          50.800
 140843567.414 5                 105175556.467 6  26801589.945
                  26801594.828          35.900                          40.200
 124010479.750 7                  92605276.290 8  23598396.305
                  23598398.039          42.700                          48.100
 132899184.872 7                  99243022.923 7  25289832.523
                  25289838.719          42.400                          45.100
 123465022.029 7                  92198004.517 8  23494586.203
                  23494590.910          47.800                          51.200
 23 12 19 11 30 15.0000000  0 21G03G21G22R14G07G02R24G14R17G30R23G08
                                R15G17E25E11E24E33E12E31E10
 126494601.965 5  98567249.34444  94460286.807 6  24071099.352
  24071111.699    24071114.160          32.200          26.700          40.500
 108449025.433 7  84505964.25946                  20637106.055
  20637110.754                          43.500          37.900
 127135837.504 5  99066817.54342                  24193122.148
  24193126.730                          33.500          16.300
 101769106.081 7  79153807.145 7                  19091607.953    19091606.984
  19091612.621                          46.000          46.900
 113478121.728 6  88424540.15747                  21594141.125
  21594146.922                          41.600          43.600
 108287676.513 7  84380265.31846                  20606409.820
  20606413.332                          44.800          40.700
 105070804.349 7  81721791.997 7                  19648670.898    19648670.074
  19648674.000                          45.900          46.000
 116987770.049 6  91159253.60944  87360993.442 7  22262002.898
  22262009.418    22262013.227          38.800          26.800          46.400
 109494924.427 7  85162988.304 7                  20461654.844    20461653.703
  20461659.051                          44.700          43.900
 115370033.524 7  89898745.43347  86152969.646 8  21954168.086
  21954176.145    21954176.309          42.200          42.500          48.700
 123877091.431 5                                  23157421.484    23157418.457
                                        33.700
 113633194.211 6  88545673.72545  84856270.959 8  21623611.078
  21623618.719    21623618.250          41.400          32.300          49.100
 112804213.638 7  87736508.330 7                  21109732.258    21109732.285
  21109736.820                          42.500          43.300
 123647280.471 5  96348513.11644                  23529277.852
  23529283.320                          34.300          29.400
 134505501.036 6                 100442482.196 7  25595534.031
                  25595539.781          40.600                          44.400
 123963813.139 6                  92570406.663 7  23589523.555
                  23589526.004          41.900                          43.600
 122656309.935 7                  91594090.870 8  23340691.242
                  23340694.867          47.400                          51.000
 140846248.758 6                 105177558.756 6  26802100.563
                  26802104.660          36.000                          40.000
 124011077.908 7                  92605722.972 8  23598509.867
                  23598511.922          42.600                          48.200
 132901191.098 7                  99244521.053 7  25290214.195
                  25290220.516          42.600                          44.700
 123464231.292 7                  92197414.018 8  23494435.625
                  23494440.602          47.600                          51.300
 23 12 19 11 30 16.0000000  0 21G03G21G22R14G07G02R24G14R17G30R23G08
                                R15G17E25E11E24E33E12E31E10
 126491207.849 5  98564604.61244  94457752.248 6  24070453.555
  24070465.781    24070468.238          32.800          27.400          40.400
 108450894.685 7  84507420.81646                  20637461.617
  20637466.430                          43.600          38.400
 127132945.522 5  99064564.05842                  24192572.148
  24192576.656                          33.400          16.900
 101769518.995 7  79154128.291 7                  19091684.836    19091684.465
  19091690.059                          46.100          47.200
 113479907.107 7  88425931.35747                  21594480.102
  21594486.566                          42.000          43.600
 108288469.686 7  84380883.37246                  20606560.727
  20606564.055                          44.700          40.800
 105072441.393 7  81723065.250 7                  19648976.398    19648976.480
  19648980.227                          46.200          46.100
 116984910.764 6  91157025.60044  87358858.258 7  22261459.094
  22261465.168    22261469.172          38.600          26.700          46.300
 109493027.517 7  85161512.939 7                  20461299.984    20461299.156
  20461304.422                          44.900          44.400
 115370140.427 7  89898828.73347  86153049.480 8  21954188.641
  21954196.473    21954196.613          42.300          42.600          48.600
 123880800.145 5                                  23158113.711    23158111.758
                                        34.100
 113635066.156 6  88547132.38745  84857668.849 8  21623967.125
  21623975.047    21623974.488          41.500          32.300          49.200
 112800886.498 7  87733920.556 7                  21109108.844    21109109.441
  21109114.082                          42.500          43.200
 123645167.392 5  96346866.56644                  23528875.156
  23528881.281                          34.600          29.700
 134503220.869 6                 100440779.476 7  25595099.477
                  25595105.801          40.900                          44.300
 123961707.601 7                  92568834.353 7  23589122.883
                  23589125.289          42.000                          43.900
 122656158.267 7                  91593977.601 8  23340662.156
                  23340666.074          47.500                          51.100
 140848930.287 5                 105179561.200 6  26802610.813
                  26802615.227          35.900                          40.300
 124011676.539 7                  92606169.990 7  23598623.867
                  23598625.793          42.700                          47.800
 132903197.642 7                  99246019.439 7  25290595.922
                  25290602.203          42.400                          45.000
 123463441.021 7                  92196823.889 8  23494285.156
                  23494290.137          47.300                          51.200
 23 12 19 11 30 17.0000000  0 21G03G21G22R14G07G02R24G14R17G30R23G08
                                R15G17E25E11E24E33E12E31E10
 126487813.812 5  98561959.93644  94455217.770 6  24069807.992
  24069820.027    24069822.414          32.900          28.500          40.800
 108452764.406 7  84508877.74646                  20637817.906
  20637822.316                          43.900          37.900
 127130053.603 5  99062310.59842                  24192022.023
  24192026.156                          33.600          16.900
 101769932.760 7  79154450.115 7                  19091763.156    19091762.297
  19091767.746                          46.100          47.500
 113481692.999 7  88427322.95947                  21594820.125
  21594826.406                          42.200          43.600
 108289263.387 7  84381501.83646                  20606712.078
  20606715.020                          45.000          40.700
 105074078.892 7  81724338.861 7                  19649283.188    19649282.594
  19649286.484                          46.100          46.200
 116982051.666 6  91154797.72444  87356723.226 7  22260915.625
  22260921.094    22260925.109          38.700          27.600          46.200
 109491131.144 7  85160037.971 7                  20460945.953    20460944.617
  20460949.973                          44.500          44.900
 115370248.001 7  89898912.55747  86153129.801 8  21954209.148
  21954216.980    21954217.184          42.600          42.500          48.500
 123884508.753 5                                  23158808.750    23158805.195
                                        34.400
 113636938.281 6  88548591.19245  84859066.864 8  21624323.398
  21624331.211    21624330.820          41.000          31.600          49.400
 112797559.805 7  87731333.140 7                  21108486.398    21108487.098
  21108491.563                          42.600          43.000
 123643054.432 5  96345220.10644                  23528474.148
  23528479.227                          35.200          29.700
 134500940.799 6                 100439076.816 7  25594665.977
                  25594671.824          41.100                          44.400
 123959602.381 6                  92567262.293 7  23588722.414
                  23588724.539          41.600                          43.800
 122656006.948 7                  91593864.612 8  23340633.461
                  23340637.293          47.800                          51.000
 140851611.920 6                 105181563.740 6  26803121.391
                  26803125.371          36.200                          40.200
 124012275.564 7                  92606617.327 7  23598737.773
                  23598739.758          42.900                          47.900
 132905204.417 7                  99247518.026 7  25290977.969
                  25290984.211          42.600                          45.100
 123462651.193 7                  92196234.088 8  23494134.859
                  23494139.750          47.500                          51.100
 23 12 19 11 30 18.0000000  0 21G03G21G22R14G07G02R24G14R17G30R23G08
                                R15G17E25E11E24E33E12E31E10
 126484419.657 5  98559315.16844  94452683.228 6  24069161.352
  24069174.258    24069176.535          33.000          26.900          40.700
 108454634.545 7  84510334.99646                  20638173.141
  20638178.164                          43.300          38.200
 127127161.603 5  99060057.13142                  24191471.211
  24191475.863                          33.700          17.800
 101770347.336 7  79154772.563 7                  19091840.820    19091839.773
  19091845.422                          46.000          47.100
 113483479.362 7  88428714.93347                  21595160.008
  21595166.281                          42.000          43.400
 108290057.564 7  84382120.68046                  20606863.055
  20606866.277                          44.900          40.900
 105075716.827 7  81725612.808 7                  19649588.891    19649588.801
  19649592.793                          46.300          45.700
 116979192.724 6  91152569.98744  87354588.294 7  22260371.703
  22260377.203    22260381.027          39.100          26.900          46.400
 109489235.231 7  85158563.390 7                  20460591.617    20460590.516
  20460595.699                          44.700          44.800
 115370356.149 7  89898996.83347  86153210.563 8  21954230.063
  21954237.633    21954237.578          42.600          42.400          48.400
 123888217.363 5                                  23159501.086    23159498.348
                                        33.400
 113638810.522 6  88550050.06645  84860464.955 8  21624679.781
  21624687.559    21624687.234          41.000          31.800          49.500
 112794233.529 7  87728746.037 7                  21107864.813    21107864.574
  21107869.105                          42.300          42.600
 123640941.583 5  96343573.73044                  23528072.188
  23528076.855                          35.100          29.900
 134498660.767 6                 100437374.206 7  25594232.297
                  25594238.082          41.500                          44.200
 123957497.487 6                  92565690.435 7  23588321.617
                  23588324.176          41.800                          43.800
 122655855.898 7                  91593751.810 8  23340604.766
                  23340608.551          47.700                          51.400
 140854293.612 5                 105183566.292 6  26803631.781
                  26803635.766          35.800                          40.400
 124012874.979 7                  92607064.927 7  23598851.953
                  23598853.922          42.700                          47.600
 132907211.425 7                  99249016.758 7  25291359.875
                  25291366.063          42.500                          45.500
 123461861.735 7                  92195644.553 8  23493984.656
                  23493989.543          47.700                          50.900
 23 12 19 11 30 19.0000000  0 21G03G21G22R14G07G02R24G14R17G30R23G08
                                R15G17E25E11E24E33E12E31E10
 126481025.534 5  98556670.41844  94450148.713 6  24068515.500
  24068528.316    24068530.504          32.500          27.700          40.900
 108456505.146 7  84511792.60446                  20638529.352
  20638534.094                          43.500          38.300
 127124269.690 5  99057803.62142                  24190921.633
  24190925.645                          33.800          16.900
 101770762.732 7  79155095.652 7                  19091918.148    19091917.520
  19091923.367                          46.400          47.000
 113485266.285 6  88430107.34047                  21595500.039
  21595506.258                          41.900          43.400
 108290852.227 7  84382739.89646                  20607014.750
  20607017.391                          45.400          40.600
 105077355.256 7  81726887.147 7                  19649895.297    19649895.262
  19649899.195                          46.400          45.700
 116976333.941 6  91150342.35244  87352453.493 7  22259827.383
  22259833.016    22259837.070          38.300          27.900          46.300
 109487339.841 7  85157089.196 7                  20460236.914    20460236.148
  20460241.684                          45.100          44.800
 115370464.962 7  89899081.61947  86153291.813 8  21954250.023
  21954258.273    21954258.426          42.600          42.500          48.500
 123891925.952 5                                  23160194.055    23160191.934
                                        33.600
 113640682.880 6  88551509.05345  84861863.164 8  21625036.375
  21625043.805    21625043.422          41.300          31.700          49.600
 112790907.672 7  87726159.263 7                  21107242.672    21107242.184
  21107246.703                          42.500          42.700
 123638828.760 5  96341927.37145                  23527669.000
  23527675.012                          34.400          30.600
 134496380.833 6                 100435671.661 7  25593798.258
                  25593804.207          41.300                          44.100
 123955392.887 6                  92564118.840 7  23587921.258
                  23587923.750          41.700                          43.900
 122655705.177 7                  91593639.263 8  23340576.008
                  23340579.957          47.600                          51.200
 140856975.435 6                 105185568.923 6  26804141.945
                  26804146.141          36.300                          40.500
 124013474.742 7                  92607512.826 7  23598965.789
                  23598967.930          43.400                          47.800
 132909218.664 7                  99250515.664 7  25291741.867
                  25291748.004          42.500                          45.900
 123461072.697 7                  92195055.338 8  23493834.477
                  23493839.391          47.500                          51.300
 23 12 19 11 30 20.0000000  0 21G03G21G22R14G07G02R24G14R17G30R23G08
                                R15G17E25E11E24E33E12E31E10
 126477631.497 5  98554025.73744  94447614.198 6  24067869.984
  24067882.539    24067884.754          32.800          27.700          41.000
 108458376.178 7  84513250.55546                  20638885.789
  20638890.305                          43.200          37.900
 127121377.727 5  99055550.18942                  24190370.984
  24190375.074                          34.000          15.600
 101771178.978 7  79155419.386 7                  19091995.914    19091995.719
  19092001.535                          46.000          47.100
 113487053.696 7  88431500.12647                  21595840.867
  21595846.379                          42.000          43.600
 108291647.389 7  84383359.50846                  20607165.922
  20607168.820                          45.400          40.700
 105078994.146 7  81728161.839 7                  19650202.391    19650201.609
  19650205.629                          46.400          46.300
 116973475.337 6  91148114.87844  87350318.820 7  22259282.750
  22259288.996    22259293.031          38.400          28.200          46.200
 109485445.003 7  85155615.427 7                  20459883.422    20459882.363
  20459887.488                          44.900          44.600
 115370574.375 7  89899166.87147  86153373.525 8  21954271.094
  21954279.234    21954279.262          42.600          42.600          48.700
 123895634.426 5                                  23160886.344    23160885.152
                                        33.500
 113642555.432 6  88552968.18645  84863261.479 8  21625392.102
  21625400.406    21625399.813          41.300          32.300          49.400
 112787582.209 7  87723572.785 7                  21106620.453    21106620.090
  21106624.484                          42.300          42.800
 123636716.165 5  96340281.20545                  23527266.602
  23527273.133                          34.500          30.400
 134494100.974 6                 100433969.183 7  25593364.469
                  25593370.332          41.200                          44.000
 123953288.610 6                  92562547.464 7  23587520.938
                  23587523.055          41.800                          43.400
 122655554.752 7                  91593526.936 8  23340547.484
                  23340551.289          47.400                          50.900
 140859657.283 5                 105187571.620 6  26804651.992
                  26804656.418          35.400                          40.300
 124014074.941 7                  92607961.010 7  23599080.156
                  23599082.152          43.100                          47.800
 132911226.149 7                  99252014.753 7  25292123.836
                  25292129.949          42.500                          45.500
 123460284.051 7                  92194466.413 8  23493684.391
                  23493689.355          47.300                          51.000
 23 12 19 11 30 21.0000000  0 21G03G21G22R14G07G02R24G14R17G30R23G08
                                R15G17E25E11E24E33E12E31E10
 126474237.315 5  98551380.95044  94445079.634 6  24067224.148
  24067236.531    24067238.875          33.500          27.900          40.800
 108460247.650 7  84514708.84846                  20639242.039
  20639246.309                          43.300          37.900
 127118485.758 5  99053296.69442                  24189820.688
  24189824.609                          32.900          16.900
 101771596.043 7  79155743.780 7                  19092074.703    19092073.953
  19092079.672                          46.400          47.000
 113488841.597 6  88432893.30247                  21596180.828
  21596186.672                          41.700          43.600
 108292443.042 7  84383979.49946                  20607317.367
  20607320.156                          45.600          40.900
 105080633.433 7  81729436.837 7                  19650508.211    19650508.195
  19650512.152                          46.400          45.600
 116970616.881 6  91145887.50944  87348184.278 7  22258738.734
  22258745.117    22258748.973          38.200          26.900          46.400
 109483550.671 7  85154142.066 7                  20459529.359    20459528.215
  20459533.574                          44.900          44.500
 115370684.418 7  89899252.62547  86153455.701 8  21954291.977
  21954300.094    21954300.031          42.500          42.600          48.500
 123899342.837 5                                  23161579.016    23161578.203
                                        33.600
 113644428.080 6  88554427.38145  84864659.896 8  21625748.594
  21625756.813    21625756.098          41.600          31.800          49.300
 112784257.157 7  87720986.636 7                  21105997.773    21105997.586
  21106002.258                          42.500          42.800
 123634603.711 5  96338635.12445                  23526864.750
  23526871.219                          34.800          30.800
 134491821.222 6                 100432266.758 7  25592930.453
                  25592936.480          41.400                          44.200
 123951184.622 6                  92560976.302 7  23587120.438
                  23587122.797          41.800                          43.500
 122655404.606 7                  91593414.809 8  23340518.922
                  23340522.707          47.600                          50.700
 140862339.266 5                 105189574.415 6  26805162.461
                  26805166.801          35.700                          40.300
 124014675.479 7                  92608409.481 7  23599194.422
                  23599196.508          43.600                          47.400
 132913233.848 7                  99253514.008 7  25292506.086
                  25292512.348          42.600                          45.500
 123459495.817 7                  92193877.797 8  23493534.313
                  23493539.395          47.300                          50.800
 23 12 19 11 30 22.0000000  0 22R13G03G21G22R14G07G02R24G14R17G30R23
                                G08R15G17E25E11E24E33E12E31E10
                  92188253.34415                  22196435.047
  22196438.527                                          34.700
 126470843.238 5  98548736.25044  94442545.111 6  24066578.094
  24066590.629    24066592.777          33.700          28.300          40.900
 108462119.614 7  84516167.52846                  20639597.859
  20639602.438                          43.300          38.000
 127115593.820 5  99051043.26042                  24189270.398
  24189274.246                          32.600          16.900
 101772013.987 7  79156068.837 7                  19092153.281    19092152.266
  19092158.199                          46.400          47.000
 113490630.050 7  88434286.89847                  21596520.922
  21596526.961                          42.000          43.500
 108293239.239 7  84384599.90746                  20607468.328
  20607471.609                          45.700          40.400
 105082273.187 7  81730712.197 7                  19650814.953    19650814.902
  19650818.777                          46.300          45.600
 116967758.653 6  91143660.32344  87346049.868 7  22258194.805
  22258200.961    22258205.074          37.800          26.000          46.600
 109481656.904 7  85152669.132 7                  20459175.359    20459174.320
  20459179.777                          45.200          44.300
 115370795.127 7  89899338.89147  86153538.357 8  21954313.211
  21954321.113    21954321.055          42.200          42.100          48.600
 123903051.249 5                                  23162273.336    23162271.477
                                        33.900
 113646300.915 6  88555886.73945  84866058.421 8  21626104.438
  21626113.070    21626112.523          41.600          32.300          49.400
 112780932.572 7  87718400.845 7                  21105375.055    21105375.281
  21105380.086                          42.400          42.900
 123632491.339 5  96336989.12545                  23526462.656
  23526469.395                          34.300          30.400
 134489541.579 6                 100430564.418 7  25592496.820
                  25592502.730          40.700                          44.200
 123949080.986 7                  92559405.382 7  23586720.023
                  23586722.484          42.600                          43.700
 122655254.820 7                  91593302.955 8  23340490.430
                  23340494.137          47.100                          50.900
 140865021.356 5                 105191577.278 6  26805672.688
                  26805677.352          35.900                          40.300
 124015276.462 7                  92608858.257 7  23599308.875
                  23599310.871          43.600                          47.700
 132915241.798 7                  99255013.465 7  25292888.109
                  25292894.133          43.000                          45.100
 123458708.011 7                  92193289.501 8  23493384.477
                  23493389.441          47.600                          50.900
 23 12 19 11 30 23.0000000  0 22R13G03G21G22R14G07G02R24G14R17G30R23
                                G08R15G17E25E11E24E33E12E31E10
                  92191362.501 5                  22197183.391
  22197187.125                                          35.400
 126467449.120 5  98546091.49744  94440010.576 6  24065932.609
  24065944.574    24065946.785          33.200          28.900          41.100
 108463992.025 7  84517626.53746                  20639953.992
  20639958.883                          43.600          37.700
 127112701.897 5  99048789.84142                  24188719.930
  24188723.961                          32.500          16.900
 101772432.724 7  79156394.533 7                  19092231.391    19092230.844
  19092236.633                          46.400          46.800
 113492419.006 6  88435680.89247                  21596861.695
  21596867.555                          41.700          43.700
 108294035.936 7  84385220.71146                  20607620.180
  20607623.059                          45.500          40.800
 105083913.397 7  81731987.924 7                  19651122.086    19651121.754
  19651125.617                          45.900          45.600
 116964900.557 6  91141433.21944  87343915.589 7  22257651.391
  22257657.074    22257661.512          38.000          26.500          46.700
 109479763.653 7  85151196.630 7                  20458821.820    20458820.598
  20458825.875                          45.400          43.800
 115370906.428 7  89899425.61347  86153621.479 8  21954333.922
  21954342.285    21954342.348          42.100          42.600          48.600
 123906759.651 5                                  23162965.836    23162964.852
                                        33.900
 113648173.840 6  88557346.17145  84867457.055 8  21626462.406
  21626469.391    21626468.879          41.600          32.300          49.300
 112777608.405 7  87715815.403 7                  21104753.711    21104753.441
  21104757.938                          42.200          42.800
 123630379.117 5  96335343.23945                  23526060.984
  23526067.461                          34.400          30.000
 134487261.979 6                 100428862.151 7  25592063.063
                  25592068.875          40.600                          44.300
 123946977.631 7                  92557834.722 7  23586319.867
                  23586322.336          42.500                          43.800
 122655105.323 7                  91593191.310 8  23340462.008
                  23340465.801          47.000                          50.900
 140867703.532 5                 105193580.192 6  26806183.031
                  26806187.617          35.800                          40.400
 124015877.805 7                  92609307.319 8  23599423.328
                  23599425.262          43.200                          48.200
 132917250.011 7                  99256513.102 7  25293270.430
                  25293276.379          42.700                          45.200
 123457920.596 7                  92192701.498 8  23493234.664
                  23493239.656          47.500                          51.000
 23 12 19 11 30 24.0000000  0 22R13G03G21G22R14G07G02R24G14R17G30R23
                                G08R15G17E25E11E24E33E12E31E10
                  92194471.881 5                  22197931.133
  22197935.816                                          35.300
 126464055.019 5  98543446.76344  94437476.065 6  24065286.727
  24065298.578    24065301.066          33.700          28.100          41.100
 108465864.861 7  84519085.89646                  20640310.469
  20640315.363                          43.300          37.900
 127109809.959 5  99046536.30742                  24188169.742
  24188173.691                          32.500          16.900
 101772852.307 7  79156720.874 7                  19092310.672    19092309.617
  19092315.465                          46.600          46.600
 113494208.506 6  88437075.30347                  21597202.117
  21597207.914                          41.800          43.500
 108294833.116 7  84385841.89446                  20607771.555
  20607774.969                          45.300          40.500
 105085554.092 7  81733264.010 7                  19651428.836    19651428.293
  19651432.355                          45.600          45.500
 116962042.674 6  91139206.31044  87341781.454 7  22257107.117
  22257113.129    22257117.500          38.600          26.700          46.400
 109477870.953 7  85149724.521 7                  20458468.078    20458466.945
  20458472.277                          45.400          44.000
 115371018.382 7  89899512.84647  86153705.079 8  21954355.000
  21954363.535    21954363.543          42.100          42.400          48.500
 123910468.003 5                                  23163659.820    23163658.305
                                        33.900
 113650046.929 6  88558805.73045  84868855.786 8  21626818.688
  21626825.883    21626825.289          41.200          32.400          48.900
 112774284.693 7  87713230.275 7                  21104131.164    21104131.367
  21104135.980                          42.200          42.600
 123628266.968 5  96333697.40744                  23525658.672
  23525665.637                          33.800          29.800
 134484982.494 6                 100427159.926 7  25591629.375
                  25591634.969          40.700                          44.500
 123944874.598 7                  92556264.274 7  23585919.563
                  23585922.043          42.200                          44.200
 122654956.146 7                  91593079.913 8  23340433.484
                  23340437.445          47.300                          51.000
 140870385.814 6                 105195583.211 6  26806693.617
                  26806698.070          36.200                          40.400
 124016479.557 7                  92609756.688 8  23599537.789
                  23599539.750          43.300                          48.200
 132919258.464 7                  99258012.916 7  25293652.273
                  25293658.500          42.300                          45.100
 123457133.616 7                  92192113.809 8  23493084.844
                  23493089.828          47.400                          50.900
 23 12 19 11 30 25.0000000  0 22R13G03G21G22R14G07G02R24G14R17G30R23
                                G08R15G17E25E11E24E33E12E31E10
                  92197581.58015                  22198680.625
  22198684.656                                          35.500
 126460660.958 5  98540802.07944  94434941.561 6  24064640.297
  24064652.543    24064655.285          33.800          27.100          40.900
 108467738.219 7  84520545.64946                  20640667.438
  20640671.688                          43.300          38.000
 127106918.034 5  99044282.85242                  24187618.563
  24187623.543                          31.900          16.300
 101773272.760 7  79157047.890 7                  19092389.109    19092388.508
  19092394.289                          46.800          46.800
 113495998.514 6  88438470.11547                  21597542.820
  21597548.543                          41.500          43.500
 108295630.848 7  84386463.50246                  20607923.688
  20607926.742                          44.700          40.500
 105087195.276 7  81734540.489 7                  19651735.844    19651735.496
  19651739.242                          45.600          45.300
 116959184.989 6  91136979.53244  87339647.454 7  22256563.320
  22256569.223    22256573.633          38.400          26.200          46.400
 109475978.811 7  85148252.847 7                  20458113.977    20458113.457
  20458118.684                          45.500          44.100
 115371131.003 6  89899600.60547  86153789.167 8  21954376.891
  21954385.051    21954384.887          41.800          42.700          48.500
 123914176.298 5                                  23164352.563    23164351.215
                                        34.000
 113651920.188 6  88560265.41045  84870254.652 8  21627174.250
  21627182.191    21627181.754          41.400          31.900          49.200
 112770961.421 6  87710645.504 7                  21103510.297    21103509.141
  21103513.961                          41.900          42.800
 123626155.056 5  96332051.77844                  23525256.281
  23525263.922                          34.200          29.100
 134482703.140 6                 100425457.813 7  25591195.719
                  25591201.270          40.800                          44.300
 123942771.922 7                  92554694.094 7  23585519.422
                  23585521.711          42.300                          43.800
 122654807.293 7                  91592968.768 8  23340405.125
                  23340408.969          47.600                          50.800
 140873068.230 6                 105197586.283 6  26807204.156
                  26807208.480          36.500                          40.900
 124017081.745 7                  92610206.361 8  23599652.641
                  23599654.395          43.300                          48.400
 132921267.193 7                  99259512.934 7  25294034.734
                  25294040.988          42.900                          45.400
 123456347.062 7                  92191526.448 8  23492935.086
                  23492940.258          47.400                          50.700
 23 12 19 11 30 26.0000000  0 21G03G21G22R14G07G02R24G14R17G30R23G08
                                R15G17E25E11E24E33E12E31E10
 126457266.947 5  98538157.41844  94432407.104 6  24063994.617
  24064006.730    24064009.117          33.900          28.100          41.300
 108469612.030 7  84522005.76946                  20641023.648
  20641028.258                          43.800          38.400
 127104026.223 5  99042029.53542                  24187068.266
  24187073.297                          32.800          17.400
 101773694.061 7  79157375.578 7                  19092468.555    19092467.441
  19092473.395                          46.500          46.900
 113497789.069 6  88439865.35347                  21597882.859
  21597889.359                          41.300          43.600
 108296429.087 7  84387085.50546                  20608075.711
  20608078.672                          44.700          40.800
 105088836.933 7  81735817.326 7                  19652042.742    19652042.125
  19652046.258                          45.600          45.600
 116956327.486 6  91134752.90844  87337513.627 7  22256020.500
  22256025.602    22256029.973          38.800          26.800          46.400
 109474087.213 7  85146781.610 7                  20457760.758    20457759.914
  20457765.121                          45.100          44.300
 115371244.247 7  89899688.85347  86153873.771 8  21954398.484
  21954406.590    21954406.613          42.000          42.600          48.300
 123917884.628 5                                  23165045.500    23165044.574
                                        33.400
 113653793.598 6  88561725.20745  84871653.629 8  21627531.055
  21627538.738    21627538.176          41.900          32.400          49.300
 112767638.603 7  87708061.084 7                  21102887.852    21102887.273
  21102891.973                          42.200          43.200
 123624043.246 5  96330406.21245                  23524855.500
  23524861.996                          34.400          30.400
 134480423.871 6                 100423755.765 7  25590761.656
                  25590767.563          40.700                          44.600
 123940669.575 7                  92553124.173 7  23585119.445
                  23585121.910          42.200                          44.100
 122654658.789 7                  91592857.867 8  23340376.945
                  23340380.648          47.700                          50.900
 140875750.758 6                 105199589.487 6  26807714.320
                  26807718.922          36.500                          40.900
 124017684.330 7                  92610656.352 8  23599766.813
                  23599768.953          43.100                          48.600
 132923276.161 7                  99261013.145 7  25294416.914
                  25294423.328          42.600                          45.500
 123455560.937 7                  92190939.419 8  23492785.555
                  23492790.621          47.300                          51.100
 23 12 19 11 30 27.0000000  0 21G03G21G22R14G07G02R24G14R17G30R23G08
                                R15G17E25E11E24E33E12E31E10
 126453872.880 5  98535512.72344  94429872.618 6  24063348.703
  24063361.121    24063363.473          34.100          27.500          41.000
 108471486.305 7  84523466.24446                  20641380.563
  20641385.082                          43.200          38.100
 127101134.380 5  99039776.17242                  24186517.703
  24186522.941                          32.600          17.400
 101774116.235 7  79157703.922 7                  19092548.375    19092546.656
  19092552.566                          46.400          47.000
 113499580.143 6  88441260.98747                  21598224.148
  21598230.141                          41.200          43.600
 108297227.839 7  84387707.91046                  20608227.813
  20608230.648                          44.600          40.700
 105090479.034 7  81737094.535 7                  19652350.008    19652349.574
  19652353.277                          45.900          46.000
 116953470.170 6  91132526.42744  87335379.912 7  22255475.789
  22255481.953    22255486.207          38.600          26.000          46.600
 109472196.151 7  85145310.769 7                  20457407.680    20457406.496
  20457411.645                          45.100          44.300
 115371358.146 7  89899777.60647  86153958.807 8  21954420.086
  21954428.184    21954428.215          42.100          42.600          48.400
 123921592.911 5                                  23165737.664    23165737.914
                                        33.200
 113655667.143 6  88563185.10445  84873052.711 8  21627887.453
  21627895.305    21627894.625          41.200          32.100          49.300
 112764316.195 7  87705477.005 7                  21102265.633    21102265.309
  21102270.215                          42.300          43.200
 123621931.520 5  96328760.70945                  23524453.555
  23524460.207                          34.300          30.400
 134478144.702 6                 100422053.771 7  25590327.844
                  25590333.832          40.600                          44.400
 123938567.569 7                  92551554.477 7  23584719.805
                  23584721.789          42.200                          44.200
 122654510.585 7                  91592747.190 8  23340348.875
                  23340352.539          47.800                          50.900
 140878433.376 6                 105201592.736 6  26808225.008
                  26808229.422          36.700                          40.900
 124018287.323 7                  92611106.633 8  23599881.906
                  23599883.660          43.300                          48.300
 132925285.390 7                  99262513.550 7  25294799.266
                  25294805.617          42.500                          45.300
 123454775.226 7                  92190352.683 8  23492636.141
                  23492641.027          47.500                          51.300
 23 12 19 11 30 28.0000000  0 21G03G21G22R14G07G02R24G14R17G30R23G08
                                R15G17E25E11E24E33E12E31E10
 126450478.837 5  98532868.03644  94427338.130 6  24062702.258
  24062715.254    24062717.473          33.700          28.500          41.100
 108473360.995 7  84524927.04146                  20641736.992
  20641741.762                          43.200          38.400
 127098242.508 5  99037522.76242                  24185968.016
  24185972.723                          32.200          16.900
 101774539.195 7  79158032.889 7                  19092627.289    19092625.875
  19092631.840                          46.400          47.100
 113501371.727 6  88442657.03447                  21598565.055
  21598571.254                          41.400          43.500
 108298027.076 7  84388330.69546                  20608379.781
  20608382.645                          44.600          40.600
 105092121.575 7  81738372.064 7                  19652656.961    19652656.723
  19652660.398                          46.000          46.200
 116950613.021 6  91130300.08644  87333246.309 7  22254932.531
  22254938.230    22254942.383          38.600          26.500          46.500
 109470305.575 7  85143840.330 7                  20457054.852    20457053.414
  20457058.301                          45.000          44.200
 115371472.644 7  89899866.81847  86154044.313 8  21954441.875
  21954450.082    21954450.098          42.100          42.500          48.600
 123925301.134 5                                  23166430.828    23166431.277
                                        33.500
 113657540.827 6  88564645.11045  84874451.882 8  21628244.133
  21628251.621    21628251.234          41.300          32.600          49.100
 112760994.227 6  87702893.256 7                  21101644.805    21101643.773
  21101648.578                          41.600          43.300
 123619819.948 5  96327115.32445                  23524051.805
  23524058.477                          34.500          31.100
 134475865.588 6                 100420351.844 7  25589894.211
                  25589899.934          40.600                          43.800
 123936465.844 6                  92549985.021 7  23584319.563
                  23584321.910          41.800                          44.200
 122654362.689 7                  91592636.745 8  23340320.594
                  23340324.523          47.700                          50.500
 140881116.075 6                 105203596.053 6  26808735.563
                  26808739.895          36.000                          41.200
 124018890.694 7                  92611557.201 8  23599996.703
                  23599998.570          43.200                          48.200
 132927294.839 7                  99264014.091 7  25295181.398
                  25295188.098          42.400                          45.400
 123453989.908 7                  92189766.255 8  23492486.633
                  23492491.660          47.800                          51.300
 23 12 19 11 30 29.0000000  0 21G03G21G22R14G07G02R24G14R17G30R23G08
                                R15G17E25E11E24E33E12E31E10
 126447084.781 5  98530223.35044  94424803.640 6  24062057.094
  24062069.395    24062071.469          34.600          27.500          41.400
 108475236.171 7  84526388.21846                  20642094.141
  20642098.680                          43.200          38.100
 127095351.04015  99035269.77252                  24185417.094
  24185422.430                          32.800          16.300
 101774962.938 7  79158362.462 7                  19092706.406    19092705.332
  19092711.465                          46.200          46.900
 113503163.820 6  88444053.46647                  21598905.914
  21598912.289                          41.100          43.400
 108298826.827 7  84388953.87546                  20608531.781
  20608534.875                          44.800          40.500
 105093764.537 7  81739649.929 7                  19652964.672    19652963.898
  19652967.680                          45.800          45.700
 116947756.011 6  91128073.84444  87331112.859 7  22254388.594
  22254394.594    22254398.801          38.500          26.300          46.400
 109468415.542 7  85142370.302 7                  20456701.328    20456700.203
  20456705.047                          45.300          44.300
 115371587.801 7  89899956.55647  86154130.295 8  21954463.602
  21954471.977    21954471.969          42.000          42.400          48.800
 123929009.298 5                                  23167123.961    23167124.422
                                        33.500
 113659414.659 6  88566105.23545  84875851.156 8  21628601.156
  21628608.199    21628607.785          41.600          31.900          49.000
 112757672.705 6  87700309.849 7                  21101022.258    21101021.727
  21101027.063                          41.800          43.300
 123617708.504 5  96325470.04545                  23523650.813
  23523656.711                          34.300          30.900
 134473586.567 6                 100418649.997 7  25589460.563
                  25589466.359          40.500                          43.800
 123934364.428 6                  92548415.776 7  23583919.617
                  23583921.906          41.900                          44.100
 122654215.097 7                  91592526.536 8  23340292.484
                  23340296.313          47.600                          50.800
 140883798.869 6                 105205599.424 6  26809245.672
                  26809250.336          36.700                          41.300
 124019494.422 7                  92612008.043 8  23600111.398
                  23600113.449          43.400                          48.300
 132929304.532 7                  99265514.846 7  25295563.930
                  25295570.555          42.300                          45.100
 123453205.007 8                  92189180.127 8  23492337.367
                  23492342.230          48.000                          51.200
 23 12 19 11 30 30.0000000  0 21G03G21G22R14G07G02R24G14R17G30R23G08
                                R15G17E25E11E24E33E12E31E10
 126443690.705 5  98527578.64344  94422269.170 6  24061411.648
  24061423.441    24061425.617          33.700          28.500          41.300
 108477111.764 7  84527849.71546                  20642450.492
  20642455.648                          43.200          38.100
 127092458.777 5  99033015.98742                  24184867.250
  24184872.063                          32.600          16.300
 101775387.489 7  79158692.674 7                  19092786.172    19092785.094
  19092791.039                          46.400          47.200
 113504956.421 6  88445450.29247                  21599246.805
  21599253.309                          41.400          43.500
 108299627.033 7  84389577.42146                  20608683.727
  20608687.176                          44.400          40.600
 105095407.956 7  81740928.131 7                  19653271.320    19653271.180
  19653275.008                          45.900          45.900
 116944899.214 6  91125847.77744  87328979.520 7  22253844.898
  22253851.070    22253855.230          38.500          27.000          46.800
 109466526.016 7  85140900.675 7                  20456347.703    20456347.074
  20456352.078                          44.800          44.600
 115371703.559 7  89900046.75147  86154216.739 8  21954485.758
  21954493.965    21954493.984          42.300          42.500          48.700
 123932717.468 5                                  23167817.953    23167817.645
                                        33.500
 113661288.605 6  88567565.47345  84877250.537 8  21628957.508
  21628965.047    21628964.492          41.400          32.900          49.000
 112754351.563 6  87697726.738 7                  21100401.125    21100400.238
  21100405.664                          41.900          43.200
 123615597.194 5  96323824.88945                  23523247.984
  23523254.848                          34.400          31.000
 134471307.644 6                 100416948.210 7  25589026.656
                  25589032.836          40.500                          43.900
 123932263.325 7                  92546846.775 7  23583520.188
                  23583522.043          42.300                          43.900
 122654067.804 7                  91592416.552 8  23340264.500
                  23340268.305          47.600                          50.900
 140886481.762 6                 105207602.853 6  26809756.695
                  26809760.926          36.500                          41.400
 124020098.578 7                  92612459.189 8  23600226.273
                  23600228.355          43.400                          48.300
 132931314.459 7                  99267015.777 7  25295946.531
                  25295952.980          42.300                          44.900
 123452420.506 8                  92188594.297 8  23492188.039
                  23492192.914          48.200                          51.300
 23 12 19 11 30 31.0000000  0 21G03G21G22R14G07G02R24G14R17G30R23G08
                                R15G17E25E11E24E33E12E31E10
 126440296.672 5  98524933.96344  94419734.688 6  24060764.688
  24060777.660    24060779.797          33.700          27.500          41.000
 108478987.825 7  84529311.57746                  20642807.695
  20642812.512                          43.100          37.900
 127089566.927 5  99030762.59642                  24184315.813
  24184321.801                          32.000          15.600
 101775812.899 7  79159023.543 7                  19092866.125    19092865.109
  19092870.816                          46.400          47.000
 113506749.554 6  88446847.54047                  21599588.516
  21599594.555                          41.300          43.600
 108300427.782 7  84390201.37546                  20608836.992
  20608839.535                          44.700          40.500
 105097051.823 7  81742206.705 7                  19653579.039    19653578.789
  19653582.293                          45.800          45.900
 116942042.576 6  91123621.83344  87326846.323 7  22253301.625
  22253307.570    22253311.516          38.600          27.600          46.400
 109464637.056 7  85139431.494 7                  20455995.766    20455993.953
  20455998.961                          44.900          44.600
 115371819.954 7  89900137.45647  86154303.653 8  21954508.023
  21954515.914    21954516.141          42.200          42.500          49.100
 123936425.541 5                                  23168512.180    23168511.047
                                        33.700
 113663162.729 6  88569025.81345  84878650.043 8  21629314.172
  21629321.566    21629321.066          41.400          32.400          49.000
 112751030.854 6  87695143.965 7                  21099778.445    21099778.863
  21099784.137                          41.700          43.100
 123613485.974 5  96322179.76945                  23522846.102
  23522853.051                          34.400          30.500
 134469028.785 6                 100415246.451 7  25588593.086
                  25588599.098          40.500                          43.800
 123930162.511 6                  92545277.996 7  23583120.094
                  23583122.277          41.900                          43.700
 122653920.837 7                  91592306.792 8  23340236.461
                  23340240.328          47.400                          51.100
 140889164.738 6                 105209606.434 6  26810267.313
                  26810271.688          36.000                          41.100
 124020703.094 7                  92612910.617 8  23600341.508
                  23600343.348          43.300                          48.100
 132933324.629 7                  99268516.868 7  25296329.156
                  25296335.441          42.500                          45.200
 123451636.425 8                  92188008.777 8  23492039.008
                  23492043.855          48.200                          51.200
 23 12 19 11 30 32.0000000  0 21G03G21G22R14G07G02R24G14R17G30R23G08
                                R15G17E25E11E24E33E12E31E10
 126436902.641 5  98522289.30844  94417200.188 6  24060119.602
  24060131.777    24060133.984          33.800          27.900          40.900
 108480864.371 7  84530773.81946                  20643164.844
  20643169.570                          43.400          37.900
 127086675.086 5  99028509.18642                  24183765.828
  24183771.496                          31.900          16.300
 101776239.181 7  79159355.090 7                  19092946.000    19092944.918
  19092950.711                          46.400          46.800
 113508543.188 6  88448245.17647                  21599929.680
  21599935.992                          41.300          43.600
 108301229.017 7  84390825.71046                  20608989.336
  20608992.047                          45.300          40.700
 105098696.174 7  81743485.642 7                  19653886.055    19653886.215
  19653889.891                          45.600          45.900
 116939186.141 6  91121396.03444  87324713.255 7  22252757.930
  22252763.957    22252768.090          38.300          27.300          46.400
 109462748.609 7  85137962.695 7                  20455642.609    20455640.914
  20455645.980                          45.400          44.200
 115371936.966 6  89900228.63347  86154391.044 8  21954530.234
  21954538.285    21954538.578          41.600          42.500          49.000
 123940133.582 5                                  23169204.945    23169203.816
                                        33.300
 113665036.973 6  88570486.26845  84880049.646 8  21629671.508
  21629678.398    21629677.641          41.200          31.900          49.000
 112747710.576 6  87692561.526 7                  21099157.219    21099157.637
  21099162.824                          41.800          43.200
 123611374.894 5  96320534.77145                  23522444.711
  23522451.488                          34.800          30.600
 134466750.063 6                 100413544.796 7  25588159.094
                  25588165.512          40.300                          43.700
 123928062.063 7                  92543709.473 7  23582720.672
                  23582722.711          42.200                          43.500
 122653774.178 7                  91592197.277 8  23340208.523
                  23340212.402          47.300                          51.000
 140891847.803 6                 105211610.043 6  26810777.789
                  26810782.105          36.200                          40.700
 124021308.024 7                  92613362.354 8  23600456.516
                  23600458.547          43.500                          48.200
 132935335.042 6                  99270018.149 7  25296711.508
                  25296718.254          41.800                          45.700
 123450852.736 7                  92187423.571 8  23491889.742
                  23491894.691          47.800                          51.200
 23 12 19 11 30 33.0000000  0 21G03G21G22R14G07G02R24G14R17G30R23G08
                                R15G17E25E11E24E33E12E31E10
 126433508.624 5  98519644.64744  94414665.724 6  24059473.070
  24059485.914    24059487.848          33.700          28.100          41.100
 108482741.327 7  84532236.38946                  20643521.883
  20643526.770                          43.400          38.100
 127083783.261 5  99026255.82642                  24183215.070
  24183221.297                          31.500          15.600
 101776666.306 7  79159687.303 7                  19093025.570    19093024.992
  19093030.871                          46.500          46.400
 113510337.343 6  88449643.21547                  21600271.453
  21600277.480                          41.500          43.700
 108302030.764 7  84391450.45546                  20609141.719
  20609144.621                          45.300          40.900
 105100340.953 7  81744764.915 7                  19654193.531    19654193.770
  19654197.496                          45.900          44.600
 116936329.848 6  91119170.35344  87322580.316 7  22252214.188
  22252220.387    22252224.379          38.400          26.100          46.300
 109460860.670 7  85136494.305 7                  20455289.164    20455288.164
  20455293.121                          45.400          44.300
 115372054.636 6  89900320.32247  86154478.910 8  21954552.563
  21954560.555    21954560.926          41.200          42.400          48.900
 123943841.620 5                                  23169897.930    23169896.699
                                        33.800
 113666911.351 6  88571946.82545  84881449.354 8  21630027.008
  21630034.871    21630034.402          41.600          31.800          48.900
 112744390.724 6  87689979.416 7                  21098536.922    21098536.352
  21098541.605                          41.600          43.000
 123609263.916 5  96318889.86545                  23522043.313
  23522050.090                          34.600          31.000
 134464471.386 6                 100411843.204 7  25587725.820
                  25587731.883          40.100                          43.800
 123925961.912 6                  92542141.187 7  23582321.328
                  23582322.984          41.500                          43.500
 122653627.807 7                  91592087.989 8  23340180.648
                  23340184.578          47.300                          51.100
 140894530.985 6                 105213613.680 6  26811288.602
                  26811292.738          36.600                          40.800
 124021913.344 7                  92613814.368 8  23600571.766
                  23600573.559          43.400                          48.100
 132937345.679 6                  99271519.612 7  25297094.297
                  25297100.832          41.900                          45.400
 123450069.477 7                  92186838.660 8  23491740.852
                  23491745.641          47.800                          51.200
 23 12 19 11 30 34.0000000  0 21G03G21G22R14G07G02R24G14R17G30R23G08
                                R15G17E25E11E24E33E12E31E10
 126430114.595 5  98516999.95444  94412131.254 6  24058826.844
  24058840.090    24058842.016          33.600          28.100          41.100
 108484618.753 7  84533699.31646                  20643879.227
  20643883.973                          43.300          38.400
 127080891.406 5  99024002.44942                  24182665.813
  24182670.941                          32.000          15.600
 101777094.280 7  79160020.174 7                  19093105.930    19093105.266
  19093111.164                          46.000          46.800
 113512132.013 7  88451041.66347                  21600612.734
  21600618.930                          42.100          43.700
 108302833.004 7  84392075.57246                  20609294.031
  20609297.270                          45.000          40.400
 105101986.185 7  81746044.531 7                  19654501.484    19654501.223
  19654505.145                          46.300          45.000
 116933473.727 6  91116944.80744  87320447.521 7  22251671.258
  22251676.609    22251680.891          38.500          27.400          46.600
 109458973.281 7  85135026.333 7                  20454936.031    20454935.488
  20454940.426                          45.000          44.300
 115372172.912 6  89900412.49247  86154567.232 8  21954574.820
  21954583.160    21954583.320          40.900          42.200          48.500
 123947549.577 5                                  23170591.164    23170589.750
                                        33.800
 113668785.878 6  88573407.50345  84882849.150 8  21630383.844
  21630391.844    21630391.117          41.600          32.100          49.100
 112741071.318 7  87687397.669 7                  21097915.758    21097915.191
  21097920.367                          42.000          43.200
 123607153.106 5  96317245.08145                  23521641.398
  23521648.301                          35.500          31.100
 134462192.819 6                 100410141.662 7  25587292.250
                  25587298.145          40.200                          43.700
 123923862.068 7                  92540573.132 7  23581921.336
                  23581923.324          42.000                          43.600
 122653481.776 7                  91591978.930 8  23340152.797
                  23340156.738          47.000                          51.200
 140897214.274 6                 105215617.443 6  26811799.242
                  26811803.426          36.700                          40.800
 124022519.024 7                  92614266.676 8  23600686.922
                  23600688.957          43.500                          48.500
 132939356.576 7                  99273021.257 7  25297476.789
                  25297483.477          42.000                          45.600
 123449286.620 7                  92186254.067 8  23491591.938
                  23491596.625          47.300                          51.500
 23 12 19 11 30 35.0000000  0 21G03G21G22R14G07G02R24G14R17G30R23G08
                                R15G17E25E11E24E33E12E31E10
 126426720.590 5  98514355.29944  94409596.801 6  24058182.063
  24058194.070    24058196.148          33.600          28.900          41.300
 108486496.647 7  84535162.61646                  20644236.844
  20644241.438                          43.600          38.300
 127077999.619 5  99021749.10042                  24182115.031
  24182120.598                          31.800          16.300
 101777523.096 7  79160353.696 7                  19093186.953    19093185.906
  19093191.590                          46.300          46.700
 113513927.198 6  88452440.50847                  21600954.797
  21600960.645                          41.800          43.600
 108303635.758 7  84392701.10046                  20609446.875
  20609450.090                          45.000          40.500
 105103631.915 7  81747324.542 7                  19654809.359    19654809.164
  19654812.980                          46.300          45.200
 116930617.835 6  91114719.42944  87318314.873 7  22251127.672
  22251133.078    22251137.488          38.200          27.600          46.700
 109457086.438 7  85133558.792 7                  20454584.273    20454583.109
  20454587.930                          45.000          44.200
 115372291.850 6  89900505.16747  86154656.060 8  21954597.406
  21954605.629    21954606.270          40.800          42.300          48.600
 123951257.476 5                                  23171284.211    23171283.027
                                        33.600
 113670660.576 6  88574868.29245  84884249.074 8  21630740.617
  21630748.469    21630747.672          41.300          32.100          49.300
 112737752.404 7  87684816.295 7                  21097293.391    21097293.910
  21097299.223                          42.400          43.000
 123605042.398 5  96315600.37945                  23521240.023
  23521246.555                          34.700          31.600
 134459914.351 6                 100408440.223 7  25586858.711
                  25586864.652          40.400                          43.800
 123921762.563 6                  92539005.311 7  23581521.898
                  23581523.871          41.800                          43.600
 122653336.078 7                  91591870.123 8  23340125.125
                  23340128.977          47.600                          51.300
 140899897.659 6                 105217621.252 6  26812309.898
                  26812314.043          36.500                          40.700
 124023125.154 7                  92614719.296 8  23600802.313
                  23600804.344          43.400                          48.500
 132941367.739 7                  99274523.092 7  25297859.633
                  25297866.348          42.300                          45.500
 123448504.205 7                  92185669.787 8  23491442.813
                  23491447.754          47.300                          51.700
 23 12 19 11 30 36.0000000  0 21G03G21G22R14G07G02R24G14R17G30R23G08
                                R15G17E25E11E24E33E12E31E10
 126423326.597 5  98511710.65244  94407062.341 6  24057535.711
  24057548.305    24057550.391          33.200          28.600          41.600
 108488374.981 7  84536626.25246                  20644593.711
  20644598.758                          43.400          38.300
 127075107.803 5  99019495.74242                  24181565.852
  24181570.406                          31.200          16.900
 101777952.721 7  79160687.844 7                  19093267.148    19093266.516
  19093272.059                          46.300          46.900
 113515722.895 6  88453839.75347                  21601296.188
  21601302.492                          41.900          43.800
 108304439.025 7  84393327.02146                  20609599.750
  20609602.945                          45.000          40.600
 105105278.069 7  81748604.895 7                  19655116.664    19655117.039
  19655120.879                          46.200          44.900
 116927762.109 6  91112494.19344  87316182.341 7  22250584.578
  22250589.715    22250593.984          38.200          27.300          46.100
 109455200.122 7  85132091.654 7                  20454230.859    20454230.625
  20454235.395                          44.700          44.300
 115372411.386 6  89900598.31547  86154745.344 8  21954620.633
  21954628.449    21954628.949          40.100          42.200          48.900
 123954965.370 5                                  23171978.898    23171976.145
                                        33.600
 113672535.398 6  88576329.19845  84885649.123 8  21631097.352
  21631105.227    21631104.586          41.300          31.900          49.300
 112734433.914 7  87682235.221 7                  21096673.625    21096673.102
  21096678.234                          42.400          43.200
 123602931.838 5  96313955.78545                  23520838.789
  23520844.824                          34.600          31.400
 134457635.951 6                 100406738.842 7  25586425.109
                  25586431.152          40.400                          44.200
 123919663.395 7                  92537437.742 7  23581122.383
                  23581124.234          42.100                          43.700
 122653190.676 7                  91591761.543 8  23340097.391
                  23340101.348          47.900                          51.200
 140902581.133 6                 105219625.150 6  26812820.336
                  26812824.492          36.400                          40.600
 124023731.646 7                  92615172.206 8  23600917.852
                  23600919.824          42.700                          48.500
 132943379.139 7                  99276025.109 7  25298242.211
                  25298249.078          42.300                          45.400
 123447722.183 7                  92185085.805 8  23491294.180
                  23491299.063          47.600                          51.700
 23 12 19 11 30 37.0000000  0 21G03G21G22R14G07G02R24G14R17G30R23G08
                                R15G17E25E11E24E33E12E31E10
 126419932.575 5  98509065.99544  94404527.879 6  24056890.344
  24056902.434    24056904.457          33.700          28.700          41.600
 108490253.801 7  84538090.26746                  20644951.523
  20644956.191                          43.500          37.900
 127072216.055 5  99017242.42442                  24181014.805
  24181020.254                          31.500          16.300
 101778383.153 7  79161022.630 7                  19093348.555    19093347.176
  19093352.906                          46.000          46.800
 113517519.139 7  88455239.41847                  21601637.859
  21601644.129                          42.400          43.800
 108305242.792 7  84393953.33846                  20609753.078
  20609755.875                          44.600          40.700
 105106924.687 7  81749885.600 7                  19655424.406    19655425.082
  19655428.723                          46.300          45.500
 116924906.566 6  91110269.09744  87314049.942 7  22250040.695
  22250046.426    22250050.621          38.300          26.600          46.200
 109453314.329 7  85130624.926 7                  20453879.438    20453878.035
  20453883.043                          45.000          44.000
 115372531.618 6  89900692.00347  86154835.094 8  21954643.359
  21954651.332    21954651.688          40.200          42.200          48.700
 123958673.203 5                                  23172670.172    23172669.164
                                        34.200
 113674410.388 6  88577790.22745  84887049.293 8  21631454.117
  21631462.105    21631461.266          41.100          31.900          49.400
 112731115.821 7  87679654.496 7                  21096053.367    21096052.363
  21096057.195                          42.400          43.200
 123600821.373 5  96312311.27645                  23520436.617
  23520443.109                          35.200          31.800
 134455357.684 6                 100405037.507 7  25585991.648
                  25585997.477          40.600                          44.000
 123917564.517 7                  92535870.401 7  23580722.734
                  23580724.840          42.200                          43.900
 122653045.592 7                  91591653.206 8  23340069.688
                  23340073.836          47.600                          51.400
 140905264.711 6                 105221629.123 6  26813330.773
                  26813335.219          36.200                          40.900
 124024338.563 7                  92615625.412 8  23601033.430
                  23601035.117          42.800                          48.500
 132945390.754 7                  99277527.292 7  25298625.102
                  25298631.914          42.300                          45.800
 123446940.572 7                  92184502.144 8  23491145.438
                  23491150.309          47.800                          51.600
 23 12 19 11 30 38.0000000  0 21G03G21G22R14G07G02R24G14R17G30R23G08
                                R15G17E25E11E24E33E12E31E10
 126416538.603 5  98506421.37744  94401993.456 6  24056244.258
  24056256.461    24056258.777          33.700          28.600          41.700
 108492133.036 7  84539554.60346                  20645309.078
  20645313.734                          43.200          37.900
 127069324.275 5  99014989.08542                  24180463.750
  24180469.988                          31.500          17.800
 101778814.422 7  79161358.066 7                  19093429.008    19093428.176
  19093433.828                          46.300          46.600
 113519315.887 7  88456639.48247                  21601980.258
  21601986.016                          42.200          43.700
 108306047.065 7  84394580.05046                  20609905.922
  20609908.863                          44.500          40.600
 105108571.758 7  81751166.646 7                  19655733.219    19655733.125
  19655736.785                          46.400          45.300
 116922051.167 6  91108044.12844  87311917.695 7  22249497.766
  22249503.250    22249507.320          38.400          27.600          46.100
 109451429.064 7  85129158.606 7                  20453526.641    20453525.820
  20453530.816                          45.200          44.300
 115372652.434 6  89900786.14647  86154925.324 8  21954666.734
  21954674.313    21954674.879          40.200          42.300          48.700
 123962381.022 5                                  23173363.219    23173362.906
                                        34.200
 113676285.562 6  88579251.40845  84888449.551 8  21631811.234
  21631818.871    21631818.258          41.200          31.700          49.400
 112727798.145 7  87677074.091 7                  21095431.828    21095431.445
  21095436.352                          42.200          43.100
 123598711.072 5  96310666.88345                  23520034.742
  23520041.469                          35.200          31.100
 134453079.497 6                 100403336.265 7  25585558.492
                  25585563.934          40.800                          44.200
 123915465.952 7                  92534303.289 7  23580323.461
                  23580325.375          42.600                          44.000
 122652900.810 7                  91591545.096 8  23340042.172
                  23340046.172          47.600                          51.300
 140907948.393 5                 105223633.134 6  26813841.578
                  26813845.965          35.800                          40.700
 124024945.845 7                  92616078.907 8  23601148.711
                  23601150.785          42.700                          48.200
 132947402.645 7                  99279029.677 7  25299007.891
                  25299014.531          42.300                          45.500
 123446159.392 7                  92183918.800 8  23490996.648
                  23491001.594          47.800                          51.300
 23 12 19 11 30 39.0000000  0 21G03G21G22R14G07G02R24G14R17G30R23G08
                                R15G17E25E11E24E33E12E31E10
 126413144.625 5  98503776.74144  94399459.037 6  24055597.891
  24055610.590    24055612.809          33.700          27.700          41.100
 108494012.786 7  84541019.34146                  20645667.188
  20645671.457                          43.400          37.900
 127066432.519 5  99012735.81042                  24179913.453
  24179919.789                          30.700          16.900
 101779246.574 7  79161694.188 7                  19093510.891    19093509.270
  19093514.820                          46.300          46.800
 113521113.164 7  88458039.95847                  21602322.367
  21602328.148                          42.600          43.800
 108306851.891 7  84395207.17946                  20610059.117
  20610062.133                          44.600          40.800
 105110219.300 7  81752448.066 7                  19656040.719    19656041.043
  19656044.922                          45.800          45.300
 116919196.004 6  91105819.31444  87309785.584 7  22248953.930
  22248959.844    22248964.008          38.600          27.300          46.600
 109449544.336 7  85127692.728 7                  20453174.211    20453173.750
  20453178.582                          45.400          44.200
 115372773.926 6  89900880.81047  86155016.053 8  21954689.375
  21954697.379    21954698.094          40.500          42.200          48.500
 123966088.854 5                                  23174056.281    23174056.094
                                        33.700
 113678160.857 6  88580712.67545  84889849.952 8  21632168.063
  21632175.719    21632175.031          41.500          32.000          49.200
 112724480.914 7  87674494.014 7                  21094811.523    21094810.816
  21094815.648                          42.200          43.200
 123596600.877 5  96309022.57245                  23519633.258
  23519639.773                          34.900          30.900
 134450801.392 6                 100401635.108 7  25585124.797
                  25585130.484          40.900                          43.600
 123913367.747 7                  92532736.453 7  23579924.383
                  23579926.273          42.300                          44.200
 122652756.376 7                  91591437.240 8  23340014.758
                  23340018.668          47.700                          51.500
 140910632.180 6                 105225637.306 6  26814352.141
                  26814356.824          36.200                          40.600
 124025553.563 7                  92616532.724 8  23601264.555
                  23601266.383          42.500                          48.000
 132949414.811 7                  99280532.255 7  25299390.797
                  25299397.668          42.100                          45.500
 123445378.631 7                  92183335.751 8  23490848.125
                  23490853.047          47.700                          51.500
 23 12 19 11 30 40.0000000  0 22R13G03G21G22R14G07G02R24G14R17G30R23
                                G08R15G17E25E11E24E33E12E31E10
                  92244258.71515                  22209919.898
  22209923.906                                          35.600
 126409750.693 5  98501132.14244  94396924.642 6  24054951.688
  24054964.656    24054966.879          33.700          28.700          41.100
 108495892.991 7  84542484.44346                  20646024.836
  20646029.207                          43.600          38.100
 127063540.840 5  99010482.55342                  24179362.977
  24179369.516                          31.200          16.300
 101779679.619 7  79162030.994 7                  19093590.602    19093590.551
  19093596.168                          46.300          47.100
 113522911.016 7  88459440.88147                  21602664.125
  21602670.246                          42.400          43.800
 108307657.244 7  84395834.73146                  20610211.922
  20610215.344                          44.700          40.400
 105111867.324 7  81753729.864 7                  19656350.359    19656349.047
  19656352.980                          45.800          45.700
 116916341.054 6  91103594.67644  87307653.647 7  22248410.813
  22248416.551    22248420.594          38.400          26.900          46.400
 109447660.227 7  85126227.311 7                  20452821.953    20452821.586
  20452826.461                          45.400          44.100
 115372896.103 6  89900976.01747  86155107.273 8  21954712.953
  21954720.680    21954721.277          40.500          42.500          48.500
 123969796.625 5                                  23174752.039    23174749.332
                                        33.700
 113680036.359 6  88582174.10545  84891250.486 8  21632525.109
  21632532.645    21632531.891          41.400          31.700          49.100
 112721164.132 7  87671914.302 7                  21094190.938    21094190.145
  21094194.938                          42.100          43.100
 123594490.907 5  96307378.44745                  23519232.813
  23519238.313                          35.400          31.800
 134448523.439 6                 100399934.031 7  25584691.313
                  25584696.945          41.300                          43.700
 123911269.869 7                  92531169.876 7  23579525.109
                  23579526.953          42.100                          43.800
 122652612.270 7                  91591329.623 8  23339987.258
                  23339991.273          47.400                          51.500
 140913316.108 5                 105227641.547 6  26814862.758
                  26814867.672          35.800                          40.600
 124026161.725 7                  92616986.856 7  23601380.602
                  23601382.086          42.700                          47.800
 132951427.226 7                  99282035.046 7  25299773.688
                  25299780.527          42.300                          45.600
 123444598.327 7                  92182753.058 8  23490699.641
                  23490704.484          47.600                          51.300
 23 12 19 11 30 41.0000000  0 22R13G03G21G22R14G07G02R24G14R17G30R23
                                G08R15G17E25E11E24E33E12E31E10
                  92247372.606 5                  22210669.891
  22210673.742                                          35.100
 126406356.723 5  98498487.52344  94394390.227 6  24054306.875
  24054318.965    24054320.891          33.800          28.700          41.300
 108497773.612 7  84543949.85946                  20646382.727
  20646387.238                          43.300          37.900
 127060649.098 5  99008229.27642                  24178812.305
  24178819.094                          31.200          16.900
 101780113.494 7  79162368.451 7                  19093672.320    19093671.879
  19093677.555                          46.000          47.400
 113524709.300 7  88460842.14547                  21603006.406
  21603012.332                          42.300          43.700
 108308463.023 7  84396462.61346                  20610365.234
  20610368.656                          44.300          40.600
 105113515.744 7  81755011.976 7                  19656657.453    19656657.438
  19656661.445                          45.900          45.400
 116913486.222 6  91101370.13644  87305521.787 7  22247868.180
  22247873.285    22247877.457          38.700          27.200          46.200
 109445776.607 7  85124762.266 7                  20452470.445    20452469.469
  20452474.348                          45.100          44.200
 115373018.813 6  89901071.63647  86155198.925 8  21954736.203
  21954743.820    21954744.664          40.500          42.300          48.700
 123973504.249 5                                  23175442.953    23175442.352
                                        33.800
 113681911.950 6  88583635.60245  84892651.089 8  21632881.805
  21632889.516    21632888.813          41.400          31.500          49.100
 112717847.721 7  87669334.866 7                  21093569.953    21093569.547
  21093574.305                          42.200          43.300
 123592380.973 5  96305734.34145                  23518831.367
  23518836.836                          35.500          31.100
 134446245.507 6                 100398232.979 7  25584257.164
                  25584263.508          40.500                          43.900
 123909172.269 7                  92529603.478 7  23579125.898
                  23579127.734          42.100                          44.100
 122652468.465 7                  91591222.232 8  23339960.039
                  23339963.949          47.200                          51.300
 140916000.104 5                 105229645.788 6  26815373.625
                  26815378.156          35.900                          40.600
 124026770.189 7                  92617441.243 8  23601496.000
                  23601497.840          43.000                          48.000
 132953439.852 7                  99283537.967 7  25300156.664
                  25300163.645          42.200                          45.600
 123443818.366 7                  92182170.628 8  23490551.211
                  23490556.184          47.400                          51.300
 23 12 19 11 30 42.0000000  0 22R13G03G21G22R14G07G02R24G14R17G30R23
                                G08R15G17E25E11E24E33E12E31E10
                  92250486.762 5                  22211419.602
  22211423.484                                          34.700
 126402962.723 5  98495842.87844  94391855.752 6  24053660.563
  24053673.090    24053675.043          33.700          28.000          41.300
 108499654.644 7  84545415.60446                  20646740.789
  20646745.195                          43.400          38.400
 127057757.326 5  99005975.86842                  24178262.344
  24178268.840                          30.500          16.900
 101780548.152 7  79162706.519 7                  19093754.758    19093753.430
  19093759.055                          45.900          47.200
 113526508.069 7  88462243.78347                  21603348.406
  21603354.828                          42.100          43.900
 108309269.294 7  84397090.87546                  20610519.055
  20610522.094                          44.500          40.500
 105115164.604 7  81756294.416 7                  19656965.883    19656965.945
  19656969.770                          45.900          45.100
 116910631.518 6  91099145.69044  87303390.022 7  22247323.781
  22247329.957    22247334.172          38.800          26.500          46.300
 109443893.437 7  85123297.579 7                  20452119.156    20452117.336
  20452122.531                          44.900          44.600
 115373142.172 6  89901167.75747  86155291.017 8  21954759.883
  21954767.426    21954768.211          40.800          42.200          48.800
 123977211.889 5                                  23176136.203    23176135.813
                                        34.200
 113683787.643 6  88585097.18245  84894051.778 8  21633239.023
  21633246.379    21633245.730          41.500          32.100          49.200
 112714531.756 7  87666755.794 7                  21092949.859    21092949.172
  21092953.730                          42.000          43.800
 123590271.148 5  96304090.33245                  23518429.570
  23518435.363                          35.000          31.700
 134443967.648 6                 100396531.979 7  25583824.008
                  25583830.102          40.800                          44.100
 123907074.965 7                  92528037.296 7  23578726.852
                  23578728.688          42.500                          44.000
 122652324.910 7                  91591115.030 8  23339932.945
                  23339936.504          47.100                          51.100
 140918684.137 6                 105231650.110 6  26815884.289
                  26815888.863          36.400                          40.700
 124027379.025 7                  92617895.890 8  23601611.844
                  23601613.691          43.100                          48.000
 132955452.669 7                  99285041.047 7  25300539.602
                  25300546.621          42.600                          45.300
 123443038.782 7                  92181588.479 8  23490402.758
                  23490407.801          47.500                          51.100
 23 12 19 11 30 43.0000000  0 22R13G03G21G22R14G07G02R24G14R17G30R23
                                G08R15G17E25E11E24E33E12E31E10
                  92253601.103 5                  22212168.633
  22212173.324                                          35.100
 126399568.776 5  98493198.26644  94389321.315 6  24053014.977
  24053027.285    24053029.273          33.700          28.600          41.500
 108501536.159 7  84546881.72046                  20647098.586
  20647103.203                          43.800          37.900
 127054865.563 5  99003722.63842                  24177713.195
  24177718.688                          31.200          16.300
 101780983.626 7  79163045.222 7                  19093835.750    19093835.387
  19093840.742                          46.300          46.700
 113528307.403 7  88463645.86147                  21603691.195
  21603697.152                          42.200          43.800
 108310076.071 7  84397719.53146                  20610672.680
  20610675.641                          44.500          40.400
 105116813.927 7  81757577.235 7                  19657274.484    19657274.438
  19657278.117                          46.300          45.300
 116907777.021 6  91096921.40044  87301258.423 7  22246780.438
  22246786.809    22246791.066          38.700          26.800          46.100
 109442010.795 7  85121833.310 7                  20451767.391    20451765.590
  20451770.582                          44.600          44.200
 115373266.109 6  89901264.32947  86155383.599 8  21954783.422
  21954790.977    21954791.836          40.700          42.100          49.100
 123980919.452 5                                  23176828.867    23176828.477
                                        33.900
 113685663.485 6  88586558.87145  84895452.561 8  21633595.555
  21633603.145    21633602.684          41.400          32.000          49.200
 112711216.270 6  87664177.074 7                  21092328.406    21092328.586
  21092333.367                          41.600          43.100
 123588161.414 5  96302446.38945                  23518027.844
  23518034.063                          35.200          31.200
 134441689.885 6                 100394831.053 7  25583390.766
                  25583396.730          40.500                          44.400
 123904977.979 7                  92526471.364 7  23578327.672
                  23578329.648          42.300                          44.500
 122652181.676 7                  91591008.077 8  23339905.570
                  23339909.359          47.400                          51.000
 140921368.236 6                 105233654.515 6  26816394.930
                  26816399.602          36.400                          40.900
 124027988.270 7                  92618350.854 8  23601727.813
                  23601729.648          43.200                          48.500
 132957465.747 7                  99286544.303 7  25300922.953
                  25300929.727          42.600                          45.500
 123442259.633 7                  92181006.643 8  23490254.539
                  23490259.570          47.300                          51.100
 23 12 19 11 30 44.0000000  0 22R13G03G21G22R14G07G02R24G14R17G30R23
                                G08R15G17E25E11E24E33E12E31E10
                  92256715.771 5                  22212918.203
  22212923.227                                          35.300
 126396174.802 5  98490553.62344  94386786.896 6  24052368.469
  24052381.520    24052383.285          33.700          27.200          41.700
 108503418.145 7  84548348.19346                  20647456.852
  20647461.266                          43.600          38.100
 127051974.34315  99001469.82152                  24177161.875
  24177168.352                          31.300          15.600
 101781419.931 7  79163384.563 7                  19093918.289    19093917.121
  19093922.480                          46.600          47.000
 113530107.239 7  88465048.32847                  21604033.367
  21604039.547                          42.000          43.800
 108310883.392 7  84398348.61946                  20610826.359
  20610829.230                          44.400          40.600
 105118463.709 7  81758860.393 7                  19657582.719    19657583.156
  19657586.648                          46.300          45.300
 116904922.750 6  91094697.29544  87299126.991 7  22246237.766
  22246243.590    22246247.852          39.200          26.400          46.100
 109440128.741 7  85120369.479 7                  20451415.211    20451413.816
  20451418.809                          44.500          44.400
 115373390.760 6  89901361.46447  86155476.667 8  21954806.828
  21954814.836    21954815.500          40.900          42.400          48.700
 123984626.978 5                                  23177521.070    23177521.430
                                        33.600
 113687539.494 6  88588020.69445  84896853.473 8  21633952.516
  21633960.145    21633959.680          41.400          32.300          49.000
 112707901.229 7  87661598.718 7                  21091708.414    21091708.418
  21091712.824                          42.000          43.500
 123586051.896 5  96300802.61045                  23517625.742
  23517632.473                          35.200          31.300
 134439412.241 6                 100393130.223 7  25582957.375
                  25582963.531          40.100                          44.300
 123902881.328 7                  92524905.700 7  23577928.555
                  23577930.840          42.500                          43.800
 122652038.794 7                  91590901.387 8  23339878.469
                  23339882.176          47.400                          51.000
 140924052.529 6                 105235659.000 6  26816906.016
                  26816910.379          36.000                          40.800
 124028597.922 7                  92618806.126 8  23601843.867
                  23601845.703          43.300                          48.100
 132959479.086 7                  99288047.797 7  25301306.141
                  25301312.719          42.700                          45.600
 123441480.924 7                  92180425.149 8  23490106.367
                  23490111.316          47.300                          51.500
 23 12 19 11 30 45.0000000  0 22R13G03G21G22R14G07G02R24G14R17G30R23
                                G08R15G17E25E11E24E33E12E31E10
                  92259830.753 5                  22213668.141
  22213673.344                                          35.200
 126392780.828 5  98487908.99544  94384252.530 6  24051722.891
  24051735.695    24051737.523          33.700          28.500          41.300
 108505300.621 7  84549815.06346                  20647814.586
  20647819.504                          43.700          38.000
 127049082.148 5  98999216.04542                  24176611.945
  24176618.246                          31.000          15.600
 101781857.058 7  79163724.553 7                  19093999.758    19093999.070
  19094004.531                          46.700          47.000
 113531907.636 7  88466451.23747                  21604376.039
  21604382.141                          42.100          43.800
 108311691.249 7  84398978.11746                  20610979.664
  20610983.031                          44.600          40.600
 105120113.948 7  81760143.911 7                  19657891.734    19657891.559
  19657895.293                          45.900          45.600
 116902068.644 6  91092473.31544  87296995.685 7  22245694.789
  22245700.449    22245704.934          38.900          27.100          46.400
 109438247.238 7  85118906.089 7                  20451063.336    20451062.227
  20451067.238                          44.700          44.200
 115373516.044 6  89901459.08047  86155570.227 8  21954830.555
  21954838.742    21954839.410          41.100          42.400          48.900
 123988334.567 5                                  23178214.070    23178214.629
                                        33.300
 113689415.659 6  88589482.64545  84898254.508 8  21634309.914
  21634317.465    21634316.660          41.300          32.000          49.000
 112704586.594 7  87659020.690 7                  21091089.055    21091088.180
  21091092.645                          42.600          43.000
 123583942.464 5  96299158.89645                  23517225.430
  23517231.063                          34.900          31.100
 134437134.710 6                 100391429.464 7  25582524.094
                  25582529.949          40.400                          44.600
 123900785.008 7                  92523340.261 7  23577529.625
                  23577531.820          42.600                          44.000
 122651896.242 7                  91590794.932 8  23339851.023
                  23339855.043          47.400                          51.100
 140926736.957 5                 105237663.583 6  26817417.180
                  26817421.145          35.900                          40.500
 124029207.999 7                  92619261.700 8  23601959.836
                  23601961.832          43.300                          48.300
 132961492.723 7                  99289551.468 7  25301689.070
                  25301695.727          42.800                          46.100
 123440702.653 7                  92179843.964 8  23489958.273
                  23489963.301          47.300                          51.200
 23 12 19 11 30 46.0000000  0 22R13G03G21G22R14G07G02R24G14R17G30R23
                                G08R15G17E25E11E24E33E12E31E10
                  92262945.998 5                  22214418.336
  22214423.258                                          35.900
 126389386.971 5  98485264.46544  94381718.142 6  24051077.367
  24051089.652    24051091.719          33.700          28.100          40.900
 108507183.516 7  84551282.25246                  20648173.266
  20648177.813                          43.500          38.300
 127046190.496 5  98996962.84642                  24176062.883
  24176067.988                          32.200          16.900
 101782295.046 7  79164065.226 7                  19094082.297    19094081.223
  19094086.664                          47.000          47.000
 113533708.541 6  88467854.53747                  21604718.070
  21604724.797                          41.900          43.700
 108312499.575 7  84399607.98046                  20611133.727
  20611136.762                          44.500          40.400
 105121764.661 7  81761427.798 7                  19658200.664    19658200.250
  19658203.961                          45.900          45.900
 116899214.743 6  91090249.50744  87294864.518 7  22245151.523
  22245157.340    22245161.695          38.900          27.100          46.200
 109436366.258 7  85117443.115 7                  20450711.602    20450710.910
  20450715.645                          44.900          44.400
 115373641.976 6  89901557.21547  86155664.264 8  21954854.609
  21954862.555    21954863.383          40.900          42.400          48.800
 123992042.018 5                                  23178907.500    23178907.836
                                        33.200
 113691291.977 6  88590944.71745  84899655.668 8  21634667.094
  21634674.395    21634673.773          41.400          32.100          49.100
 112701272.410 7  87656442.975 7                  21090468.234    21090467.785
  21090472.320                          42.300          43.200
 123581833.181 5  96297515.30945                  23516823.516
  23516829.684                          35.100          31.500
 134434857.257 6                 100389728.783 7  25582090.656
                  25582096.457          40.600                          44.300
 123898688.984 7                  92521775.059 7  23577130.813
                  23577132.926          42.900                          43.600
 122651754.004 7                  91590688.724 8  23339824.172
                  23339827.973          47.500                          51.100
 140929421.400 6                 105239668.219 6  26817927.969
                  26817932.133          36.000                          40.400
 124029818.471 7                  92619717.551 8  23602076.180
                  23602077.961          42.800                          48.300
 132963506.573 7                  99291055.317 7  25302072.414
                  25302079.176          42.300                          45.600
 123439924.791 7                  92179263.088 8  23489810.211
                  23489815.332          47.400                          51.200
 23 12 19 11 30 47.0000000  0 22R13G03G21G22R14G07G02R24G14R17G30R23
                                G08R15G17E25E11E24E33E12E31E10
                  92266061.445 5                  22215169.648
  22215173.395                                          35.800
 126385993.090 5  98482619.91544  94379183.753 6  24050431.234
  24050443.473    24050445.754          34.300          27.800          40.800
 108509066.895 7  84552749.82146                  20648531.609
  20648536.367                          43.500          38.000
 127043298.875 5  98994709.63542                  24175512.344
  24175517.703                          32.600          17.400
 101782733.913 7  79164406.563 7                  19094163.750    19094163.605
  19094169.043                          46.800          47.100
 113535509.956 6  88469258.23847                  21605061.125
  21605067.633                          41.800          43.900
 108313308.438 7  84400238.26146                  20611287.531
  20611290.805                          45.100          40.600
 105123415.862 7  81762712.069 7                  19658509.367    19658508.758
  19658512.684                          45.900          45.700
 116896360.996 6  91088025.81344  87292733.490 7  22244608.336
  22244614.426    22244618.645          38.700          27.300          46.300
 109434485.807 7  85115980.537 7                  20450361.297    20450359.500
  20450364.270                          44.500          44.400
 115373768.521 6  89901655.81847  86155758.760 8  21954878.820
  21954886.566    21954887.477          40.800          42.400          49.000
 123995749.518 5                                  23179602.242    23179601.117
                                        33.500
 113693168.455 6  88592406.89945  84901056.910 8  21635024.211
  21635031.391    21635030.859          41.700          31.400          49.200
 112697958.660 7  87653865.603 7                  21089847.680    21089847.355
  21089852.230                          42.200          43.300
 123579724.027 5  96295871.81345                  23516422.141
  23516428.207                          34.800          31.100
 134432579.898 6                 100388028.166 7  25581657.164
                  25581663.074          40.400                          44.200
 123896593.346 7                  92520210.130 7  23576732.188
                  23576734.164          42.700                          44.000
 122651612.086 7                  91590582.729 8  23339797.219
                  23339801.020          47.700                          51.000
 140932105.983 6                 105241672.938 6  26818438.586
                  26818443.074          36.000                          40.400
 124030429.314 7                  92620173.726 8  23602192.273
                  23602194.289          43.400                          48.400
 132965520.670 7                  99292559.341 7  25302455.883
                  25302462.430          42.300                          45.700
 123439147.321 7                  92178682.526 8  23489662.453
                  23489667.375          47.400                          51.200
 23 12 19 11 30 48.0000000  0 22R13G03G21G22R14G07G02R24G14R17G30R23
                                G08R15G17E25E11E24E33E12E31E10
                  92269177.157 5                  22215918.680
  22215923.641                                          35.500
 126382599.146 5  98479975.31344  94376649.375 6  24049785.320
  24049797.570    24049799.797          33.500          28.000          41.300
 108510950.705 7  84554217.72646                  20648890.391
  20648894.637                          43.600          38.100
 127040407.209 5  98992456.41542                  24174962.297
  24174967.438                          31.300          17.400
 101783173.591 7  79164748.541 7                  19094246.484    19094245.930
  19094251.547                          46.900          47.000
 113537311.868 6  88470662.32147                  21605404.297
  21605410.414                          41.900          43.700
 108314117.794 7  84400868.92946                  20611441.961
  20611444.680                          44.800          40.600
 105125067.486 7  81763996.670 7                  19658818.234    19658817.789
  19658821.488                          46.100          45.600
 116893507.451 6  91085802.27244  87290602.590 7  22244066.023
  22244071.453    22244075.523          38.500          26.500          46.300
 109432605.898 7  85114518.376 7                  20450009.422    20450008.180
  20450012.988                          44.800          44.400
 115373895.718 6  89901754.93847  86155853.735 8  21954902.813
  21954910.664    21954911.602          40.500          42.200          49.300
 123999456.951 5                                  23180294.422    23180293.738
                                        33.700
 113695045.061 6  88593869.19345  84902458.278 8  21635380.344
  21635388.527    21635388.020          41.300          32.200          49.300
 112694645.349 7  87651288.573 7                  21089227.664    21089227.582
  21089232.215                          42.400          43.300
 123577614.993 5  96294228.40345                  23516020.789
  23516026.719                          34.800          30.300
 134430302.659 6                 100386327.603 7  25581224.016
                  25581229.895          39.900                          44.200
 123894497.992 7                  92518645.423 7  23576333.352
                  23576335.398          43.000                          43.800
 122651470.469 7                  91590476.984 8  23339770.234
                  23339773.996          47.700                          51.000
 140934790.644 6                 105243677.707 6  26818949.641
                  26818953.895          36.500                          40.500
 124031040.555 7                  92620630.168 8  23602308.477
                  23602310.484          43.400                          48.300
 132967534.986 7                  99294063.548 7  25302839.055
                  25302845.754          42.600                          45.900
 123438370.283 7                  92178102.262 8  23489514.484
                  23489519.438          47.300                          51.300
 23 12 19 11 30 49.0000000  0 22R13G03G21G22R14G07G02R24G14R17G30R23
                                G08R15G17E25E11E24E33E12E31E10
                  92272293.173 5                  22216668.555
  22216673.957                                          35.600
 126379205.261 5  98477330.76144  94374115.017 6  24049139.516
  24049151.699    24049154.035          33.400          27.700          41.400
 108512834.955 7  84555685.98046                  20649248.656
  20649253.410                          43.900          38.100
 127037515.545 5  98990203.14142                  24174411.805
  24174417.465                          31.600          16.300
 101783614.088 7  79165091.136 7                  19094329.289    19094328.516
  19094334.234                          46.900          47.300
 113539114.310 6  88472066.82047                  21605747.523
  21605753.480                          41.700          43.700
 108314927.633 7  84401499.97746                  20611595.773
  20611598.891                          44.700          40.500
 105126719.535 7  81765281.583 7                  19659127.313    19659126.734
  19659130.457                          46.300          46.000
 116890654.037 6  91083578.83644  87288471.810 7  22243522.695
  22243528.551    22243532.551          39.100          26.800          46.400
 109430726.506 7  85113056.653 7                  20449657.781    20449657.090
  20449661.777                          45.300          44.200
 115374023.500 6  89901854.49847  86155949.172 8  21954927.547
  21954935.117    21954935.980          41.000          42.400          48.900
 124003164.305 5                                  23180987.320    23180986.879
                                        33.400
 113696921.804 6  88595331.58845  84903859.744 8  21635737.914
  21635745.711    21635745.063          41.200          31.300          49.100
 112691332.433 7  87648711.886 7                  21088607.094    21088607.633
  21088612.262                          42.800          43.200
 123575506.067 5  96292585.08345                  23515619.039
  23515625.363                          34.800          30.500
 134428025.457 6                 100384627.116 7  25580790.664
                  25580796.574          40.200                          44.000
 123892402.939 7                  92517080.936 7  23575934.539
                  23575936.863          42.200                          43.900
 122651329.154 7                  91590371.451 8  23339743.305
                  23339747.117          47.400                          51.000
 140937475.406 6                 105245682.580 6  26819460.320
                  26819464.793          36.400                          40.800
 124031652.184 7                  92621086.897 8  23602425.016
                  23602426.957          43.600                          48.600
 132969549.567 7                  99295567.944 7  25303222.352
                  25303229.109          42.700                          46.000
 123437593.635 7                  92177522.296 8  23489366.875
                  23489371.660          47.400                          51.300
 23 12 19 11 30 50.0000000  0 22R13G03G21G22R14G07G02R24G14R17G30R23
                                G08R15G17E25E11E24E33E12E31E10
                  92275409.41915                  22217420.391
  22217424.375                                          35.600
 126375811.356 5  98474686.18844  94371580.631 6  24048493.398
  24048505.898    24048508.258          33.300          27.900          41.300
 108514719.696 7  84557154.60046                  20649607.344
  20649611.961                          44.000          38.000
 127034623.941 5  98987949.95842                  24173861.367
  24173867.117                          31.300          16.300
 101784055.414 7  79165434.388 7                  19094413.148    19094411.285
  19094417.078                          46.700          47.400
 113540917.288 6  88473471.73647                  21606090.383
  21606096.445                          41.700          43.600
 108315738.001 7  84402131.42746                  20611749.813
  20611752.996                          44.700          40.500
 105128372.053 7  81766566.878 7                  19659435.414    19659435.734
  19659439.480                          46.400          45.900
 116887800.853 6  91081355.56944  87286341.180 7  22242979.891
  22242985.766    22242989.523          38.800          27.000          46.000
 109428847.663 7  85111595.320 7                  20449306.711    20449306.074
  20449310.695                          45.100          44.400
 115374151.958 6  89901954.60047  86156045.087 8  21954951.984
  21954959.484    21954960.504          40.900          42.500          48.700
 124006871.687 5                                  23181681.398    23181679.371
                                        33.600
 113698798.709 6  88596794.10845  84905261.328 8  21636095.406
  21636102.836    21636102.367          41.300          31.500          49.100
 112688020.009 7  87646135.527 7                  21087988.313    21087987.656
  21087992.344                          42.700          42.800
 123573397.291 5  96290941.89045                  23515217.734
  23515224.184                          34.700          31.100
 134425748.384 6                 100382926.692 7  25580357.297
                  25580363.219          40.200                          44.400
 123890308.236 7                  92515516.705 7  23575535.914
                  23575538.285          42.800                          43.700
 122651188.150 7                  91590266.161 8  23339716.445
                  23339720.375          47.700                          50.900
 140940160.267 6                 105247687.507 6  26819971.367
                  26819975.824          37.000                          40.500
 124032264.229 7                  92621543.947 8  23602541.523
                  23602543.379          43.600                          48.500
 132971564.392 7                  99297072.521 7  25303605.758
                  25303612.426          42.800                          45.900
 123436817.422 7                  92176942.657 8  23489218.984
                  23489224.004          47.800                          51.500
 23 12 19 11 30 51.0000000  0 22R13G03G21G22R14G07G02R24G14R17G30R23
                                G08R15G17E25E11E24E33E12E31E10
                  92278525.919 5                  22218168.406
  22218174.680                                          35.600
 126372417.440 5  98472041.60344  94369046.261 6  24047847.742
  24047860.063    24047862.352          32.300          27.900          40.900
 108516604.841 7  84558623.54846                  20649965.820
  20649970.781                          43.600          38.300
 127031732.316 5  98985696.75242                  24173312.063
  24173316.965                          31.200          16.900
 101784497.551 7  79165778.286 7                  19094494.930    19094494.199
  19094500.008                          46.600          46.900
 113542720.755 6  88474877.03947                  21606433.398
  21606439.520                          41.700          43.600
 108316548.854 7  84402763.26546                  20611904.430
  20611907.391                          45.000          40.700
 105130025.039 7  81767852.543 7                  19659743.969    19659744.762
  19659748.664                          46.900          45.900
 116884947.843 6  91079132.44144  87284210.674 7  22242437.070
  22242442.691    22242446.645          39.000          26.900          46.200
 109426969.313 7  85110134.381 7                  20448955.609    20448955.027
  20448959.691                          45.500          44.600
 115374280.995 6  89902055.14647  86156141.464 8  21954975.516
  21954984.031    21954985.094          40.900          42.200          48.700
 124010578.909 5                                  23182373.289    23182372.273
                                        33.300
 113700675.701 6  88598256.70545  84906662.991 8  21636452.391
  21636459.973    21636459.457          41.300          32.300          49.200
 112684707.972 7  87643559.525 7                  21087368.867    21087368.000
  21087372.531                          42.500          43.000
 123571288.630 5  96289298.77845                  23514817.305
  23514822.875                          34.600          31.200
 134423471.386 6                 100381226.345 7  25579923.969
                  25579929.984          40.300                          44.400
 123888213.824 7                  92513952.688 7  23575137.383
                  23575139.641          42.400                          43.500
 122651047.486 8                  91590161.117 8  23339689.766
                  23339693.578          48.000                          51.100
 140942845.229 6                 105249692.521 6  26820482.156
                  26820486.707          36.800                          40.700
 124032876.640 7                  92622001.269 8  23602658.000
                  23602659.867          43.300                          48.400
 132973579.451 7                  99298577.260 7  25303989.438
                  25303995.813          43.000                          45.400
 123436041.598 7                  92176363.312 8  23489071.219
                  23489076.324          47.700                          51.800
 23 12 19 11 30 52.0000000  0 22R13G03G21G22R14G07G02R24G14R17G30R23
                                G08R15G17E25E11E24E33E12E31E10
                  92281642.621 5                  22218921.313
  22218925.000                                          35.000
 126369023.581 5  98469397.06344  94366511.895 6  24047201.711
  24047214.449    24047216.535          32.200          27.700          41.100
 108518490.462 7  84560092.86046                  20650324.547
  20650329.563                          43.700          37.800
 127028840.669 5  98983443.52742                  24172760.516
  24172766.902                          31.000          16.300
 101784940.559 7  79166122.837 7                  19094578.156    19094577.281
  19094583.063                          46.700          47.000
 113544524.738 6  88476282.73747                  21606776.898
  21606782.930                          41.900          43.500
 108317360.205 7  84403395.48246                  20612058.609
  20612061.770                          45.000          40.700
 105131678.468 7  81769138.550 7                  19660054.117    19660053.969
  19660057.844                          46.700          45.600
 116882094.993 6  91076909.44544  87282080.294 7  22241894.133
  22241899.762    22241903.855          38.900          27.100          46.100
 109425091.454 7  85108673.844 7                  20448605.141    20448604.059
  20448608.816                          45.600          44.600
 115374410.716 6  89902156.22747  86156238.314 8  21955000.711
  21955008.754    21955009.742          41.000          42.300          48.800
 124014286.151 5                                  23183066.594    23183065.340
                                        33.500
 113702552.864 6  88599719.43245  84908064.753 8  21636809.906
  21636817.297    21636816.676          41.400          33.100          48.900
 112681396.359 7  87640983.830 7                  21086748.586    21086748.125
  21086752.789                          42.700          43.000
 123569180.099 5  96287655.76445                  23514415.508
  23514421.535                          34.800          30.900
 134421194.458 6                 100379526.047 7  25579490.531
                  25579496.695          40.600                          44.400
 123886119.700 7                  92512388.898 7  23574738.867
                  23574741.199          42.900                          43.600
 122650907.113 7                  91590056.290 8  23339662.938
                  23339666.914          47.700                          50.800
 140945530.283 5                 105251697.567 6  26820993.141
                  26820997.477          35.900                          40.500
 124033489.455 7                  92622458.882 8  23602774.578
                  23602776.648          43.300                          48.400
 132975594.717 7                  99300082.192 7  25304372.719
                  25304379.277          43.000                          45.600
 123435266.184 8                  92175784.274 8  23488923.797
                  23488928.832          48.100                          51.700
 23 12 19 11 30 53.0000000  0 22R13G03G21G22R14G07G02R24G14R17G30R23
                                G08R15G17E25E11E24E33E12E31E10
                  92284759.663 5                  22219672.031
  22219675.637                                          35.700
 126365629.697 5  98466752.49944  94363977.543 6  24046556.492
  24046568.730    24046570.648          32.800          28.000          41.300
 108520376.552 7  84561562.53846                  20650683.875
  20650688.434                          43.700          38.000
 127025949.051 5  98981190.32342                  24172210.289
  24172216.934                          31.200          14.800
 101785384.469 7  79166468.099 7                  19094661.367    19094660.711
  19094666.219                          47.000          46.400
 113546329.252 6  88477688.85947                  21607120.172
  21607126.059                          41.800          43.500
 108318172.093 7  84404028.12546                  20612213.414
  20612216.191                          45.000          40.400
 105133332.363 7  81770424.903 7                  19660363.289    19660363.219
  19660367.000                          46.600          45.700
 116879242.320 6  91074686.59644  87279950.066 7  22241350.781
  22241356.727    22241360.934          39.200          27.000          46.200
 109423214.206 7  85107213.738 7                  20448253.906    20448253.309
  20448257.883                          45.500          44.000
 115374541.033 6  89902257.77747  86156335.645 8  21955025.336
  21955033.492    21955034.617          41.300          42.300          49.200
 124017993.397 5                                  23183761.375    23183758.707
                                        34.000
 113704430.179 6  88601182.27145  84909466.658 8  21637166.195
  21637174.535    21637173.906          41.400          32.300          49.000
 112678085.238 7  87638408.514 7                  21086129.086    21086128.629
  21086133.129                          42.600          42.300
 123567071.718 5  96286012.86545                  23514014.578
  23514020.449                          34.800          31.000
 134418917.650 6                 100377825.844 7  25579057.461
                  25579063.488          40.300                          44.400
 123884025.945 7                  92510825.377 7  23574340.688
                  23574342.836          42.700                          44.000
 122650767.067 7                  91589951.710 8  23339636.305
                  23339640.238          47.800                          50.600
 140948215.447 6                 105253702.716 6  26821504.445
                  26821508.590          36.500                          40.700
 124034102.679 7                  92622916.799 8  23602891.227
                  23602893.277          42.700                          48.200
 132977610.288 7                  99301587.316 7  25304756.547
                  25304762.883          43.000                          45.400
 123434491.215 8                  92175205.553 8  23488776.258
                  23488781.324          48.300                          51.700
 23 12 19 11 30 54.0000000  0 22R13G03G21G22R14G07G02R24G14R17G30R23
                                G08R15G17E25E11E24E33E12E31E10
                  92287876.952 5                  22220424.125
  22220426.191                                          35.300
 126362235.873 5  98464107.98444  94361443.236 6  24045910.172
  24045922.965    24045924.832          32.300          27.000          41.300
 108522263.119 7  84563032.59646                  20651042.961
  20651047.453                          43.700          38.100
 127023057.523 5  98978937.16342                  24171659.469
  24171666.633                          31.800          14.800
 101785829.209 7  79166814.017 7                  19094744.930    19094743.949
  19094749.754                          46.400          46.600
 113548134.298 6  88479095.38547                  21607463.469
  21607469.762                          41.800          43.500
 108318984.495 7  84404661.16246                  20612367.719
  20612370.750                          45.100          40.500
 105134986.707 7  81771711.612 7                  19660673.016    19660672.641
  19660676.391                          46.700          45.900
 116876389.892 6  91072463.91244  87277820.002 7  22240808.594
  22240813.871    22240818.078          39.100          26.100          46.300
 109421337.494 7  85105754.073 7                  20447903.430    20447902.836
  20447907.176                          45.800          43.800
 115374672.039 6  89902359.86047  86156433.474 8  21955050.977
  21955058.570    21955059.301          41.600          42.500          49.300
 124021700.626 5                                  23184454.484    23184451.750
                                        34.000
 113706307.649 6  88602645.23545  84910868.668 8  21637524.516
  21637531.941    21637531.234          41.400          32.600          49.000
 112674774.557 7  87635833.541 7                  21085509.617    21085508.895
  21085513.582                          42.300          42.400
 123564963.506 5  96284370.09945                  23513612.570
  23513619.293                          34.400          30.800
 134416640.979 6                 100376125.716 7  25578624.180
                  25578630.250          40.200                          44.000
 123881932.511 7                  92509262.110 7  23573942.133
                  23573944.316          42.400                          43.500
 122650627.367 7                  91589847.392 8  23339609.563
                  23339613.496          47.800                          50.400
 140950900.703 6                 105255707.972 6  26822015.258
                  26822019.570          36.000                          40.500
 124034716.315 7                  92623375.048 8  23603008.117
                  23603009.977          43.000                          48.300
 132979626.121 7                  99303092.650 7  25305140.305
                  25305146.480          43.100                          45.100
 123433716.665 8                  92174627.166 8  23488628.867
                  23488633.875          48.000                          51.800
 23 12 19 11 30 55.0000000  0 22R13G03G21G22R14G07G02R24G14R17G30R23
                                G08R15G17E25E11E24E33E12E31E10
                  92290994.540 5                  22221174.750
  22221176.922                                          35.800
 126358842.126 5  98461463.53844  94358908.919 6  24045264.906
  24045277.090    24045278.828          32.900          27.700          41.400
 108524150.141 7  84564503.00446                  20651401.695
  20651406.563                          43.600          38.300
 127020165.948 5  98976684.03842                  24171110.766
  24171116.480                          31.300          15.600
 101786274.793 7  79167160.584 7                  19094828.508    19094827.672
  19094833.402                          46.500          46.800
 113549939.899 7  88480502.34247                  21607807.586
  21607813.305                          42.000          43.700
 108319797.412 7  84405294.60946                  20612522.430
  20612525.285                          45.400          40.400
 105136641.527 7  81772998.709 7                  19660981.758    19660982.121
  19660985.926                          46.600          45.700
 116873537.652 6  91070241.38444  87275690.084 7  22240265.688
  22240271.039    22240275.184          39.300          27.500          46.600
 109419461.349 7  85104294.862 7                  20447552.500    20447552.125
  20447556.582                          45.800          43.900
 115374803.714 6  89902462.45947  86156531.793 8  21955075.484
  21955083.617    21955084.527          41.100          42.300          49.100
 124025407.772 5                                  23185146.008    23185144.758
                                        34.100
 113708185.282 6  88604108.32645  84912270.790 8  21637881.461
  21637889.223    21637888.484          41.500          32.400          49.100
 112671464.354 7  87633258.940 7                  21084890.125    21084889.367
  21084894.125                          42.200          42.100
 123562855.385 5  96282727.42045                  23513211.828
  23513218.293                          34.800          31.300
 134414364.391 6                 100374425.681 7  25578191.188
                  25578197.000          40.500                          44.000
 123879839.425 7                  92507699.095 7  23573543.875
                  23573546.168          42.600                          43.500
 122650488.000 7                  91589743.313 8  23339583.242
                  23339587.086          47.600                          50.700
 140953586.136 6                 105257713.307 6  26822526.133
                  26822530.531          36.400                          40.600
 124035330.365 7                  92623833.588 8  23603124.844
                  23603126.813          42.600                          48.000
 132981642.216 7                  99304598.177 7  25305523.547
                  25305530.254          42.900                          45.200
 123432942.565 7                  92174049.090 8  23488481.555
                  23488486.574          47.900                          51.500
 23 12 19 11 30 56.0000000  0 22R13G03G21G22R14G07G02R24G14R17G30R23
                                G08R15G17E25E11E24E33E12E31E10
                  92294112.358 6                  22221923.234
  22221927.543                                          36.600
 126355448.342 5  98458819.04944  94356374.648 6  24044618.656
  24044631.090    24044633.180          33.400          28.100          41.300
 108526037.647 7  84565973.78446                  20651760.953
  20651765.707                          43.500          37.700
 127017274.473 5  98974430.89542                  24170559.375
  24170566.285                          31.500          15.600
 101786721.174 7  79167507.765 7                  19094912.367    19094911.230
  19094917.137                          46.800          47.000
 113551746.014 7  88481909.70247                  21608151.148
  21608156.941                          42.300          43.600
 108320610.864 7  84405928.47346                  20612677.367
  20612680.254                          45.500          40.300
 105138296.832 7  81774286.170 7                  19661292.172    19661291.664
  19661295.504                          46.400          46.200
 116870685.570 6  91068018.99344  87273560.305 7  22239722.992
  22239728.465    22239732.473          38.800          26.000          46.600
 109417585.755 7  85102836.068 7                  20447202.938    20447201.688
  20447205.988                          45.800          44.000
 115374935.982 6  89902565.52947  86156630.581 8  21955101.211
  21955108.730    21955109.691          41.300          42.200          48.600
 124029114.948 5                                  23185839.172    23185838.000
                                        33.700
 113710063.058 6  88605571.52945  84913673.037 8  21638239.000
  21638246.559    21638245.816          41.600          32.400          48.800
 112668154.581 7  87630684.674 7                  21084270.266    21084270.031
  21084274.699                          42.300          42.600
 123560747.424 5  96281084.86345                  23512811.273
  23512817.172                          34.900          30.200
 134412087.916 6                 100372725.709 7  25577757.859
                  25577763.883          40.900                          44.100
 123877746.676 7                  92506136.332 7  23573145.805
                  23573147.816          42.500                          43.700
 122650348.953 7                  91589639.494 8  23339556.727
                  23339560.637          47.600                          50.800
 140956271.637 5                 105259718.710 6  26823037.313
                  26823041.488          35.700                          40.600
 124035944.814 7                  92624292.429 8  23603241.836
                  23603243.805          43.100                          48.100
 132983658.556 7                  99306103.876 7  25305907.500
                  25305913.750          42.800                          45.200
 123432168.875 8                  92173471.341 8  23488333.969
                  23488339.496          48.000                          51.700
 23 12 19 11 30 57.0000000  0 22R13G03G21G22R14G07G02R24G14R17G30R23
                                G08R15G17E25E11E24E33E12E31E10
                  92297230.487 6                  22222673.328
  22222678.293                                          36.500
 126352054.468 5  98456174.51044  94353840.334 6  24043973.297
  24043985.313    24043987.414          33.200          28.500          41.400
 108527925.570 7  84567444.89346                  20652120.703
  20652125.063                          43.900          38.100
 127014382.937 5  98972177.77042                  24170010.000
  24170016.113                          32.400          16.300
 101787168.364 7  79167855.572 7                  19094996.195    19094995.145
  19095001.078                          46.400          47.000
 113553552.619 7  88483317.44947                  21608494.938
  21608500.770                          42.000          43.700
 108321424.786 7  84406562.69546                  20612831.930
  20612835.184                          45.400          40.600
 105139952.576 7  81775573.967 7                  19661602.016    19661601.059
  19661605.160                          46.800          45.700
 116867833.681 6  91065796.73144  87271430.621 7  22239179.898
  22239185.945    22239189.820          39.000          27.200          46.600
 109415710.646 7  85101377.655 7                  20446851.820    20446851.250
  20446855.633                          45.700          44.100
 115375068.884 6  89902669.08647  86156729.826 8  21955126.398
  21955134.238    21955134.836          41.800          42.600          48.600
 124032821.991 5                                  23186532.492    23186530.961
                                        33.600
 113711940.960 6  88607034.83545  84915075.360 8  21638596.109
  21638604.039    21638603.168          41.300          31.400          49.000
 112664845.182 7  87628110.699 7                  21083651.063    21083650.902
  21083655.406                          42.500          42.400
 123558639.594 5  96279442.40745                  23512410.039
  23512415.922                          35.200          31.400
 134409811.510 6                 100371025.799 7  25577324.539
                  25577330.578          41.300                          44.100
 123875654.246 7                  92504573.784 7  23572747.500
                  23572749.820          42.400                          43.500
 122650210.193 7                  91589535.861 8  23339530.328
                  23339534.227          47.400                          51.200
 140958957.182 5                 105261724.172 6  26823548.266
                  26823552.781          35.500                          40.800
 124036559.628 7                  92624751.551 8  23603358.813
                  23603360.805          43.100                          48.200
 132985675.098 7                  99307609.758 7  25306291.148
                  25306297.539          42.800                          45.600
 123431395.565 8                  92172893.878 8  23488187.125
                  23488192.246          48.100                          51.500
 23 12 19 11 30 58.0000000  0 22R13G03G21G22R14G07G02R24G14R17G30R23
                                G08R15G17E25E11E24E33E12E31E10
                  92300348.777 6                  22223425.063
  22223429.082                                          36.800
 126348660.683 5  98453530.02144  94351306.042 6  24043327.172
  24043339.520    24043341.512          33.200          29.400          41.200
 108529813.940 7  84568916.35846                  20652479.820
  20652484.445                          43.900          38.200
 127011491.401 5  98969924.56742                  24169459.664
  24169465.984                          32.200          17.400
 101787616.373 7  79168204.020 7                  19095080.016    19095079.188
  19095085.074                          46.400          47.300
 113555359.711 7  88484725.57047                  21608838.789
  21608844.504                          42.100          43.700
 108322239.193 7  84407197.30546                  20612986.961
  20612990.184                          45.100          40.500
 105141608.729 7  81776862.083 7                  19661910.703    19661910.895
  19661914.746                          46.800          45.900
 116864981.939 6  91063574.60744  87269301.078 7  22238637.164
  22238643.266    22238647.164          39.200          25.700          46.000
 109413836.072 7  85099919.651 7                  20446501.805    20446500.984
  20446505.336                          45.600          43.800
 115375202.400 6  89902773.12747  86156829.518 8  21955151.148
  21955159.422    21955160.402          41.800          42.500          48.500
 124036529.007 5                                  23187224.125    23187224.211
                                        33.200
 113713818.974 6  88608498.21945  84916477.772 8  21638953.398
  21638961.328    21638960.652          41.300          31.600          49.300
 112661536.192 7  87625537.045 7                  21083031.531    21083031.617
  21083036.105                          42.500          42.300
 123556531.797 5  96277799.97545                  23512008.813
  23512014.727                          35.500          31.700
 134407535.187 6                 100369325.936 7  25576891.602
                  25576897.461          40.800                          44.300
 123873562.044 7                  92503011.459 7  23572349.328
                  23572351.535          42.400                          43.500
 122650071.732 7                  91589432.475 8  23339504.008
                  23339507.824          47.200                          51.300
 140961642.854 5                 105263729.686 6  26824059.438
                  26824063.652          35.900                          40.600
 124037174.832 7                  92625210.947 8  23603475.789
                  23603477.863          43.200                          48.300
 132987691.879 7                  99309115.795 7  25306674.750
                  25306681.309          42.900                          45.900
 123430622.654 7                  92172316.701 8  23488039.898
                  23488045.090          47.700                          51.500
 23 12 19 11 30 59.0000000  0 22R13G03G21G22R14G07G02R24G14R17G30R23
                                G08R15G17E25E11E24E33E12E31E10
                  92303467.383 6                  22224174.844
  22224180.082                                          36.200
 126345266.906 5  98450885.53944  94348771.728 6  24042681.031
  24042693.652    24042695.672          33.100          28.300          41.300
 108531702.772 7  84570388.17446                  20652839.344
  20652843.781                          43.700          37.800
 127008599.869 5  98967671.45742                  24168909.688
  24168915.805                          31.600          15.600
 101788065.229 7  79168553.136 7                  19095164.641    19095163.391
  19095169.320                          46.400          47.300
 113557167.343 7  88486134.11247                  21609183.008
  21609188.586                          42.400          43.600
 108323054.106 7  84407832.30146                  20613141.813
  20613145.277                          45.300          40.500
 105143265.324 7  81778150.537 7                  19662221.133    19662220.668
  19662224.566                          46.700          46.000
 116862130.388 6  91061352.62544  87267171.675 7  22238095.516
  22238100.438    22238104.598          39.200          27.100          46.200
 109411962.021 7  85098462.050 7                  20446151.797    20446150.879
  20446155.230                          45.800          43.900
 115375336.567 7  89902877.67247  86156929.695 8  21955176.570
  21955184.965    21955185.855          42.100          42.500          48.300
 124040236.001 5                                  23187918.703    23187916.938
                                        33.400
 113715697.171 6  88609961.74745  84917880.312 8  21639311.063
  21639318.512    21639318.070          41.600          31.800          49.100
 112658227.657 7  87622963.763 7                  21082412.500    21082412.668
  21082416.871                          42.600          42.800
 123554424.234 5  96276157.71945                  23511607.703
  23511613.555                          35.100          31.300
 134405258.945 6                 100367626.149 7  25576458.430
                  25576464.207          41.000                          44.300
 123871470.205 7                  92501449.356 7  23571951.055
                  23571953.598          42.200                          43.600
 122649933.592 7                  91589329.315 8  23339477.633
                  23339481.648          47.100                          51.300
 140964328.601 5                 105265735.291 6  26824569.961
                  26824574.863          35.900                          41.100
 124037790.432 7                  92625670.649 8  23603592.938
                  23603594.926          43.200                          48.200
 132989708.898 7                  99310622.001 7  25307058.625
                  25307065.031          43.000                          45.900
 123429850.169 7                  92171739.847 8  23487892.805
                  23487898.199          47.900                          51.300
 23 12 19 11 31  0.0000000  0 22R13G03G21G22R14G07G02R24G14R17G30R23
                                G08R15G17E25E11E24E33E12E31E10
                  92306586.302 6                  22224925.508
  22224930.910                                          36.000
 126341873.146 5  98448241.07044  94346237.489 6  24042035.695
  24042047.945    24042049.715          33.200          28.400          41.400
 108533592.082 7  84571860.36246                  20653198.234
  20653203.391                          43.600          37.900
 127005708.436 5  98965418.41942                  24168359.359
  24168365.559                          32.000          14.800
 101788514.986 7  79168902.952 7                  19095248.672    19095247.766
  19095253.680                          46.700          47.100
 113558975.492 7  88487543.06147                  21609526.867
  21609532.660                          42.400          43.400
 108323869.563 7  84408467.71546                  20613297.203
  20613300.391                          45.000          40.600
 105144922.370 7  81779439.369 7                  19662531.289    19662530.676
  19662534.539                          46.700          46.000
 116859279.054 6  91059130.80144  87265042.436 7  22237552.461
  22237557.766    22237561.902          39.200          27.200          46.300
 109410088.514 7  85097004.889 7                  20445801.648    20445800.617
  20445805.063                          45.800          44.000
 115375471.383 6  89902982.72247  86157030.376 8  21955202.313
  21955210.773    21955211.363          41.400          42.400          48.300
 124043942.963 5                                  23188610.789    23188609.953
                                        33.700
 113717575.543 6  88611425.42045  84919282.991 8  21639668.383
  21639675.840    21639675.484          41.700          31.100          49.200
 112654919.621 7  87620390.824 7                  21081793.711    21081793.602
  21081797.758                          42.600          42.700
 123552316.728 5  96274515.51045                  23511206.203
  23511212.668                          35.500          31.000
 134402982.823 6                 100365926.446 7  25576025.336
                  25576031.266          40.800                          44.300
 123869378.718 7                  92499887.509 7  23571553.172
                  23571555.504          42.300                          43.700
 122649795.792 7                  91589226.425 8  23339451.469
                  23339455.352          46.800                          51.200
 140967014.481 5                 105267740.983 6  26825081.188
                  26825085.793          35.600                          40.800
 124038406.456 7                  92626130.680 8  23603710.391
                  23603712.102          43.300                          48.300
 132991726.213 7                  99312128.438 7  25307442.617
                  25307448.996          42.400                          45.600
 123429078.117 7                  92171163.325 8  23487746.180
                  23487751.246          47.900                          51.700
 23 12 19 11 31  1.0000000  0 22R13G03G21G22R14G07G02R24G14R17G30R23
                                G08R15G17E25E11E24E33E12E31E10
                  92309705.460 6                  22225676.867
  22225681.848                                          36.000
 126338479.419 5  98445596.63744  94343703.212 6  24041389.117
  24041402.039    24041403.977          33.400          27.900          41.300
 108535481.830 7  84573332.89446                  20653558.250
  20653562.969                          43.600          37.900
 127002816.941 5  98963165.27242                  24167808.063
  24167815.148                          32.500          15.600
 101788965.571 7  79169253.401 7                  19095333.164    19095332.188
  19095338.305                          46.900          47.600
 113560784.162 7  88488952.41047                  21609870.906
  21609876.785                          42.300          43.400
 108324685.489 7  84409103.51646                  20613452.727
  20613455.742                          45.000          41.000
 105146579.886 7  81780728.529 7                  19662841.328    19662840.527
  19662844.414                          46.600          46.200
 116856427.894 6  91056909.10844  87262913.310 7  22237009.789
  22237015.367    22237019.531          39.400          27.000          46.000
 109408215.513 7  85095548.114 7                  20445451.359    20445450.215
  20445455.090                          45.400          44.300
 115375606.817 6  89903088.25747  86157131.504 8  21955228.625
  21955236.574    21955237.191          41.700          42.600          48.500
 124047649.882 5                                  23189304.711    23189302.844
                                        33.700
 113719454.033 6  88612889.17445  84920685.761 8  21640026.336
  21640033.367    21640032.859          41.600          32.000          48.700
 112651611.987 7  87617818.220 7                  21081174.148    21081174.359
  21081178.789                          42.700          42.400
 123550209.403 5  96272873.43845                  23510805.570
  23510811.445                          35.400          30.400
 134400706.780 6                 100364226.809 7  25575592.031
                  25575598.094          40.900                          44.400
 123867287.509 7                  92498325.917 7  23571155.383
                  23571157.469          42.400                          43.400
 122649658.300 7                  91589123.735 8  23339425.180
                  23339429.219          47.400                          51.100
 140969700.488 5                 105269746.722 6  26825592.406
                  26825596.910          35.600                          40.600
 124039022.840 7                  92626590.966 8  23603827.422
                  23603829.598          43.200                          48.300
 132993743.757 7                  99313635.045 7  25307826.539
                  25307832.980          42.400                          45.700
 123428306.471 7                  92170587.092 8  23487599.297
                  23487604.352          47.700                          51.500
 23 12 19 11 31  2.0000000  0 22R13G03G21G22R14G07G02R24G14R17G30R23
                                G08R15G17E25E11E24E33E12E31E10
                  92312824.894 6                  22226426.828
  22226432.926                                          36.500
 126335085.677 5  98442952.18844  94341168.956 6  24040744.203
  24040756.348    24040758.180          33.000          29.300          41.400
 108537372.033 7  84574805.77546                  20653917.523
  20653922.793                          43.200          37.800
 126999925.454 5  98960912.18542                  24167258.297
  24167265.145                          32.500          16.900
 101789416.993 7  79169604.512 7                  19095418.227    19095417.012
  19095423.004                          46.600          47.500
 113562593.355 7  88490362.17647                  21610214.945
  21610221.203                          42.200          43.200
 108325501.930 7  84409739.69746                  20613608.078
  20613611.074                          45.000          40.800
 105148237.858 7  81782018.062 7                  19663151.367    19663150.730
  19663154.418                          46.700          46.200
 116853576.872 6  91054687.53944  87260784.331 7  22236467.055
  22236472.680    22236476.898          39.500          27.000          46.100
 109406343.063 7  85094091.757 7                  20445102.000    20445100.184
  20445105.277                          45.000          44.600
 115375742.881 6  89903194.28247  86157233.120 8  21955254.102
  21955262.500    21955263.141          41.500          42.400          48.800
 124051356.768 5                                  23189997.438    23189995.461
                                        33.600
 113721332.671 6  88614353.04745  84922088.636 8  21640383.813
  21640390.941    21640390.355          41.400          32.600          48.800
 112648304.786 7  87615245.944 7                  21080555.711    21080555.434
  21080559.758                          42.700          42.300
 123548102.177 5  96271231.45545                  23510404.039
  23510410.352                          35.500          30.700
 134398430.851 6                 100362527.264 7  25575159.031
                  25575165.152          41.100                          44.300
 123865196.647 7                  92496764.564 7  23570757.414
                  23570759.680          43.000                          43.500
 122649521.122 7                  91589021.307 8  23339399.234
                  23339403.090          47.300                          51.300
 140972386.547 6                 105271752.564 6  26826103.992
                  26826108.066          36.300                          40.700
 124039639.636 7                  92627051.567 8  23603945.078
                  23603946.918          43.200                          48.300
 132995761.535 7                  99315141.828 7  25308210.445
                  25308216.883          42.400                          45.400
 123427535.250 7                  92170011.166 8  23487452.523
                  23487457.703          47.300                          51.400
 23 12 19 11 31  3.0000000  0 22R13G03G21G22R14G07G02R24G14R17G30R23
                                G08R15G17E25E11E24E33E12E31E10
                  92315944.447 6                  22227177.656
  22227184.008                                          36.300
 126331691.891 5  98440307.71544  94338634.688 6  24040097.469
  24040110.512    24040112.195          32.500          27.000          41.600
 108539262.684 7  84576279.01546                  20654277.758
  20654282.527                          43.600          37.900
 126997034.053 5  98958659.13542                  24166708.484
  24166714.738                          32.500          16.300
 101789869.242 7  79169956.263 7                  19095503.422    19095501.805
  19095507.797                          46.400          47.000
 113564403.052 6  88491772.32247                  21610559.836
  21610565.461                          41.700          43.300
 108326318.869 7  84410376.27346                  20613763.492
  20613766.477                          45.100          40.400
 105149896.271 7  81783307.945 7                  19663461.031    19663460.910
  19663464.668                          46.500          45.500
 116850726.088 6  91052466.14744  87258655.469 7  22235925.102
  22235930.254    22235934.348          39.500          27.900          46.100
 109404471.157 7  85092635.839 7                  20444751.398    20444750.352
  20444755.344                          44.600          44.100
 115375879.594 6  89903300.81347  86157335.203 8  21955280.227
  21955288.453    21955289.023          41.500          42.600          48.700
 124055063.616 5                                  23190690.648    23190688.473
                                        34.100
 113723211.433 6  88615817.01945  84923491.612 8  21640740.656
  21640748.438    21640747.887          41.600          31.900          49.100
 112644998.002 7  87612674.018 7                  21079937.250    21079937.117
  21079940.875                          42.300          42.400
 123545995.091 5  96269589.55445                  23510003.656
  23510009.387                          35.300          30.400
 134396154.996 6                 100360827.773 7  25574725.891
                  25574732.023          40.500                          44.000
 123863106.106 7                  92495203.426 7  23570359.586
                  23570361.711          42.600                          43.800
 122649384.259 7                  91588919.097 8  23339373.258
                  23339377.086          47.000                          51.100
 140975072.718 6                 105273758.476 6  26826614.719
                  26826619.422          36.200                          40.700
 124040256.823 7                  92627512.449 8  23604062.477
                  23604064.313          43.200                          48.600
 132997779.573 7                  99316648.799 7  25308594.688
                  25308601.039          42.100                          44.900
 123426764.431 7                  92169435.571 8  23487305.930
                  23487310.926          47.400                          51.500
 23 12 19 11 31  4.0000000  0 22R13G03G21G22R14G07G02R24G14R17G30R23
                                G08R15G17E25E11E24E33E12E31E10
                  92319064.324 5                  22227927.984
  22227935.063                                          35.600
 126328298.132 5  98437663.24644  94336100.429 6  24039451.766
  24039464.609    24039466.371          33.400          27.100          41.400
 108541153.766 7  84577752.58146                  20654637.695
  20654642.254                          43.400          37.900
 126994142.545 5  98956406.00842                  24166157.469
  24166164.422                          32.600          16.300
 101790322.307 7  79170308.637 7                  19095587.813    19095586.789
  19095592.758                          46.300          46.900
 113566213.249 6  88493182.87147                  21610904.031
  21610909.934                          41.600          43.400
 108327136.301 7  84411013.23746                  20613919.078
  20613922.063                          44.700          40.500
 105151555.137 7  81784598.178 7                  19663771.227    19663771.035
  19663774.820                          46.800          45.300
 116847875.447 6  91050244.87044  87256526.758 7  22235382.453
  22235387.863    22235391.785          39.500          26.900          46.400
 109402599.795 7  85091180.323 7                  20444401.172    20444400.570
  20444405.754                          45.000          43.900
 115376016.915 6  89903407.80747  86157437.748 8  21955307.078
  21955314.613    21955315.129          41.400          42.600          48.800
 124058770.390 5                                  23191382.828    23191381.594
                                        34.100
 113725090.309 6  88617281.07745  84924894.681 8  21641098.445
  21641105.965    21641105.352          41.400          31.600          48.800
 112641691.672 6  87610102.420 7                  21079318.594    21079318.422
  21079322.055                          41.800          42.500
 123543888.080 5  96267947.73545                  23509602.578
  23509608.605                          35.100          31.200
 134393879.222 6                 100359128.317 7  25574292.891
                  25574298.789          40.400                          43.900
 123861015.854 7                  92493642.544 7  23569961.844
                  23569964.121          42.400                          43.800
 122649247.700 7                  91588817.122 8  23339347.094
                  23339351.133          47.500                          51.100
 140977758.949 6                 105275764.436 6  26827125.984
                  26827130.473          36.800                          40.600
 124040874.390 7                  92627973.604 8  23604179.711
                  23604181.910          43.100                          48.300
 132999797.813 7                  99318155.939 7  25308978.781
                  25308985.121          42.300                          45.100
 123425994.011 7                  92168860.249 8  23487159.398
                  23487164.234          47.900                          51.500
 23 12 19 11 31  5.0000000  0 22R13G03G21G22R14G07G02R24G14R17G30R23
                                G08R15G17E25E11E24E33E12E31E10
                  92322184.477 5                  22228680.023
  22228686.328                                          35.500
 126324904.427 5  98435018.83944  94333566.159 6  24038805.867
  24038818.836    24038820.762          32.500          28.300          41.800
 108543045.317 7  84579226.52146                  20654997.438
  20655002.078                          43.600          38.000
 126991251.097 5  98954152.94742                  24165607.742
  24165614.195                          31.600          14.800
 101790776.203 7  79170661.685 7                  19095673.219    19095672.043
  19095677.883                          46.200          47.000
 113568023.943 6  88494593.79947                  21611248.844
  21611254.535                          41.400          43.500
 108327954.217 7  84411650.57346                  20614074.336
  20614077.695                          44.700          40.300
 105153214.467 7  81785888.769 7                  19664081.406    19664081.301
  19664085.180                          46.900          45.200
 116845024.978 6  91048023.73144  87254398.169 7  22234839.688
  22234845.438    22234849.465          39.600          27.000          46.600
 109400728.910 7  85089725.196 7                  20444051.789    20444050.867
  20444056.016                          45.000          44.200
 115376154.874 6  89903515.30947  86157540.762 8  21955332.750
  21955340.922    21955341.457          41.400          42.800          48.700
 124062477.111 5                                  23192075.953    23192074.219
                                        33.500
 113726969.371 7  88618745.28545  84926297.868 8  21641456.422
  21641463.480    21641463.066          42.000          31.800          48.900
 112638385.788 7  87607531.180 7                  21078699.141    21078699.965
  21078703.488                          42.100          42.300
 123541781.233 5  96266306.04345                  23509201.414
  23509207.730                          35.400          31.500
 134391603.557 6                 100357428.962 7  25573859.961
                  25573865.883          40.000                          44.200
 123858925.925 7                  92492081.876 7  23569564.063
                  23569566.281          42.400                          43.900
 122649111.441 7                  91588715.371 8  23339321.305
                  23339325.090          47.400                          51.000
 140980445.300 6                 105277770.465 6  26827637.430
                  26827641.750          36.400                          40.700
 124041492.323 7                  92628435.065 8  23604297.313
                  23604299.363          43.300                          48.600
 133001816.310 7                  99319663.244 7  25309362.711
                  25309369.117          42.600                          45.300
 123425223.996 8                  92168285.237 8  23487012.844
                  23487017.727          48.300                          51.400
 23 12 19 11 31  6.0000000  0 22R13G03G21G22R14G07G02R24G14R17G30R23
                                G08R15G17E25E11E24E33E12E31E10
                  92325304.896 5                  22229430.648
  22229437.672                                          35.400
 126321510.712 5  98432374.40744  94331031.938 6  24038160.750
  24038173.156    24038174.766          33.000          28.200          41.800
 108544937.309 7  84580700.79646                  20655357.555
  20655362.090                          43.800          37.800
 126988359.643 5  98951899.89442                  24165058.047
  24165063.980                          31.900          16.300
 101791230.914 7  79171015.338 7                  19095758.258    19095757.320
  19095763.266                          46.300          47.100
 113569835.156 6  88496005.13947                  21611593.344
  21611599.109                          41.100          43.300
 108328772.646 7  84412288.31346                  20614230.070
  20614233.281                          44.600          40.600
 105154874.231 7  81787179.694 7                  19664392.086    19664391.535
  19664395.551                          46.500          45.300
 116842174.697 6  91045802.72844  87252269.691 7  22234297.688
  22234303.203    22234307.094          39.300          27.500          47.000
 109398858.517 7  85088270.463 7                  20443702.984    20443701.414
  20443706.457                          44.800          44.200
 115376293.444 6  89903623.28647  86157644.251 8  21955359.578
  21955367.293    21955367.676          41.600          42.600          48.900
 124066183.742 5                                  23192769.039    23192767.258
                                        33.700
 113728848.554 6  88620209.58345  84927701.144 8  21641814.258
  21641821.219    21641820.582          41.800          31.900          48.900
 112635080.338 6  87604960.266 7                  21078081.094    21078081.398
  21078084.863                          41.800          42.800
 123539674.482 5  96264664.42545                  23508800.367
  23508806.781                          35.000          31.700
 134389327.939 6                 100355729.640 7  25573427.219
                  25573432.715          40.400                          44.100
 123856836.306 7                  92490521.435 7  23569166.445
                  23569168.605          42.400                          43.700
 122648975.494 7                  91588613.850 8  23339295.266
                  23339299.281          47.300                          51.000
 140983131.724 5                 105279776.567 6  26828148.930
                  26828153.148          35.800                          40.900
 124042110.660 7                  92628896.819 8  23604415.039
                  23604417.145          43.100                          48.500
 133003835.057 7                  99321170.744 7  25309746.984
                  25309753.168          42.900                          45.300
 123424454.387 8                  92167710.531 8  23486866.422
                  23486871.375          48.000                          51.200
 23 12 19 11 31  7.0000000  0 22R13G03G21G22R14G07G02R24G14R17G30R23
                                G08R15G17E25E11E24E33E12E31E10
                  92328425.53715                  22230181.594
  22230189.027                                          34.800
 126318116.951 5  98429729.94444  94328497.669 7  24037514.617
  24037527.285    24037529.035          32.900          28.500          42.100
 108546829.725 7  84582175.41346                  20655718.117
  20655722.285                          43.300          37.900
 126985468.189 5  98949646.77542                  24164508.164
  24164513.820                          32.200          16.300
 101791686.449 7  79171369.639 7                  19095843.469    19095842.660
  19095848.664                          45.800          47.400
 113571646.844 6  88497416.84247                  21611937.961
  21611943.988                          41.400          43.000
 108329591.567 7  84412926.43146                  20614386.133
  20614389.164                          44.900          40.500
 105156534.408 7  81788470.949 7                  19664702.484    19664702.039
  19664705.918                          46.400          45.300
 116839324.570 6  91043581.85644  87250141.367 7  22233755.164
  22233761.039    22233764.711          39.400          28.000          46.800
 109396988.689 7  85086816.140 7                  20443352.703    20443352.078
  20443357.047                          44.900          44.100
 115376432.646 6  89903731.75547  86157748.205 8  21955385.734
  21955393.816    21955394.254          41.800          42.600          48.600
 124069890.398 5                                  23193462.664    23193460.520
                                        33.900
 113730727.859 6  88621673.97945  84929104.524 8  21642171.094
  21642178.844    21642178.234          41.900          32.300          48.900
 112631775.305 7  87602389.674 7                  21077463.211    21077463.152
  21077466.395                          42.100          42.700
 123537567.890 5  96263022.92045                  23508399.359
  23508406.020                          35.500          32.000
 134387052.425 6                 100354030.398 7  25572994.359
                  25572999.840          40.600                          44.200
 123854746.982 7                  92488961.229 7  23568768.813
                  23568771.254          42.500                          43.700
 122648839.853 7                  91588512.565 8  23339269.641
                  23339273.453          47.300                          50.700
 140985818.222 6                 105281782.745 6  26828659.953
                  26828664.336          36.200                          40.800
 124042729.382 7                  92629358.839 8  23604533.117
                  23604534.777          43.000                          48.300
 133005854.009 7                  99322678.398 7  25310131.234
                  25310137.477          42.800                          45.100
 123423685.188 7                  92167136.121 8  23486719.867
                  23486724.953          47.600                          51.300
 23 12 19 11 31  8.0000000  0 21G03G21G22R14G07G02R24G14R17G30R23G08
                                R15G17E25E11E24E33E12E31E10
 126314723.243 5  98427085.52344  94325963.426 6  24036868.719
  24036881.492    24036883.238          32.800          28.700          41.700
 108548722.633 7  84583650.40346                  20656077.898
  20656082.508                          43.500          38.400
 126982576.756 5  98947393.74742                  24163957.531
  24163963.586                          31.800          16.300
 101792142.838 7  79171724.616 7                  19095929.516    19095928.238
  19095934.277                          45.800          47.800
 113573459.104 6  88498828.99147                  21612283.102
  21612288.813                          41.600          43.400
 108330410.995 7  84413564.94446                  20614541.805
  20614545.113                          44.700          40.500
 105158195.086 7  81789762.576 7                  19665012.828    19665012.770
  19665016.449                          46.400          45.700
 116836474.617 6  91041361.11844  87248013.165 7  22233213.000
  22233218.750    22233222.426          39.500          27.700          46.800
 109395119.414 7  85085362.271 7                  20443003.703    20443002.668
  20443007.652                          45.000          44.200
 115376572.468 7  89903840.70947  86157852.627 8  21955412.414
  21955420.328    21955420.738          42.100          42.600          48.200
 124073596.928 5                                  23194155.742    23194153.410
                                        33.700
 113732607.332 6  88623138.49945  84930508.023 8  21642528.703
  21642536.586    21642535.871          41.800          33.000          48.900
 112628470.704 7  87599819.439 7                  21076843.992    21076844.508
  21076848.008                          42.200          42.700
 123535461.373 5  96261381.48745                  23507999.000
  23508005.301                          34.600          31.600
 134384776.986 6                 100352331.236 7  25572561.258
                  25572566.805          40.500                          43.900
 123852658.015 7                  92487401.308 7  23568371.211
                  23568373.492          42.500                          43.600
 122648704.538 7                  91588411.518 8  23339243.797
                  23339247.652          47.600                          51.000
 140988504.863 6                 105283788.977 6  26829171.266
                  26829175.375          36.700                          40.900
 124043348.501 7                  92629821.174 8  23604650.742
                  23604652.563          43.200                          48.500
 133007873.238 7                  99324186.276 7  25310515.164
                  25310521.859          42.800                          45.200
 123422916.396 7                  92166562.035 8  23486573.586
                  23486578.633          47.400                          51.200
 23 12 19 11 31  9.0000000  0 21G03G21G22R14G07G02R24G14R17G30R23G08
                                R15G17E25E11E24E33E12E31E10
 126311329.574 5  98424441.13344  94323429.218 6  24036223.164
  24036235.793    24036237.348          32.900          28.700          41.400
 108550615.994 7  84585125.75146                  20656438.203
  20656442.949                          43.400          38.100
 126979685.358 5  98945140.68842                  24163406.883
  24163413.211                          32.500          15.600
 101792600.106 7  79172080.259 7                  19096015.359    19096014.227
  19096020.043                          46.300          47.700
 113575271.892 6  88500241.55147                  21612627.656
  21612633.797                          41.800          43.600
 108331230.952 7  84414203.88246                  20614698.414
  20614701.078                          45.000          40.600
 105159856.260 7  81791054.612 7                  19665323.492    19665323.422
  19665327.043                          46.000          45.900
 116833624.935 6  91039140.58344  87245885.144 7  22232670.805
  22232676.512    22232680.137          39.200          27.500          46.900
 109393250.659 7  85083908.797 7                  20442654.234    20442653.426
  20442658.473                          45.000          43.500
 115376712.973 6  89903950.19247  86157957.542 8  21955438.961
  21955447.152    21955447.547          41.900          42.600          48.500
 124077303.477 5                                  23194848.617    23194845.910
                                        33.400
 113734486.935 6  88624603.12845  84931911.651 8  21642886.508
  21642894.246    21642893.570          41.600          31.900          49.100
 112625166.558 7  87597249.555 7                  21076225.656    21076226.004
  21076229.656                          42.300          42.700
 123533355.052 5  96259740.20245                  23507597.844
  23507604.422                          34.800          32.100
 134382501.701 6                 100350632.149 7  25572128.117
                  25572133.797          40.500                          44.200
 123850569.367 7                  92485841.604 7  23567973.883
                  23567976.074          42.300                          43.800
 122648569.544 7                  91588310.700 8  23339218.164
                  23339221.977          47.400                          50.700
 140991191.594 6                 105285795.288 6  26829682.273
                  26829686.730          36.100                          40.600
 124043968.023 7                  92630283.819 8  23604768.750
                  23604770.547          43.200                          48.600
 133009892.731 7                  99325694.323 7  25310899.438
                  25310906.266          43.100                          45.300
 123422148.051 7                  92165988.271 8  23486427.391
                  23486432.426          47.400                          51.200
 23 12 19 11 31 10.0000000  0 21G03G21G22R14G07G02R24G14R17G30R23G08
                                R15G17E25E11E24E33E12E31E10
 126307935.887 5  98421796.72844  94320894.998 6  24035577.609
  24035589.980    24035591.508          33.600          27.300          41.700
 108552509.796 7  84586601.44146                  20656798.328
  20656803.270                          43.500          37.900
 126976793.989 5  98942887.68342                  24162857.211
  24162862.887                          32.200          16.300
 101793058.182 7  79172436.542 7                  19096101.367    19096100.102
  19096106.023                          46.300          47.300
 113577085.184 6  88501654.50147                  21612972.578
  21612978.789                          41.700          43.000
 108332051.394 7  84414843.18546                  20614853.992
  20614857.309                          44.700          40.400
 105161517.854 7  81792346.968 7                  19665634.539    19665634.234
  19665637.758                          46.300          45.500
 116830775.372 6  91036920.15244  87243757.222 7  22232127.891
  22232134.133    22232137.859          39.500          27.300          46.700
 109391382.449 7  85082455.726 7                  20442305.359    20442304.090
  20442309.344                          45.500          44.000
 115376854.099 6  89904060.16047  86158062.924 8  21955466.430
  21955474.027    21955474.270          41.800          42.600          48.600
 124081010.003 5                                  23195542.984    23195539.355
                                        33.600
 113736366.727 6  88626067.89345  84933315.375 8  21643244.617
  21643252.074    21643251.316          41.800          31.900          48.800
 112621862.863 7  87594680.013 7                  21075606.711    21075608.105
  21075611.527                          42.300          43.200
 123531248.831 5  96258099.00245                  23507196.852
  23507203.805                          34.800          31.900
 134380226.514 6                 100348933.114 7  25571695.227
                  25571700.879          40.700                          44.000
 123848481.034 7                  92484282.139 7  23567576.461
                  23567578.625          42.200                          43.400
 122648434.873 7                  91588210.147 8  23339192.703
                  23339196.297          47.000                          51.000
 140993878.421 5                 105287801.690 6  26830193.648
                  26830197.883          35.700                          40.600
 124044587.938 7                  92630746.733 8  23604886.617
                  23604888.500          43.200                          48.500
 133011912.423 7                  99327202.562 7  25311284.055
                  25311290.551          43.200                          45.400
 123421380.095 7                  92165414.802 8  23486281.242
                  23486286.340          47.400                          51.000
 23 12 19 11 31 11.0000000  0 21G03G21G22R14G07G02R24G14R17G30R23G08
                                R15G17E25E11E24E33E12E31E10
 126304542.235 5  98419152.34544  94318360.799 7  24034930.766
  24034944.133    24034945.652          32.500          27.900          42.200
 108554404.045 7  84588077.48146                  20657158.898
  20657163.527                          43.600          37.900
 126973902.606 5  98940634.62842                  24162306.453
  24162312.656                          32.000          16.300
 101793517.085 7  79172793.474 7                  19096188.227    19096186.316
  19096192.098                          46.400          47.300
 113578898.963 6  88503067.83647                  21613318.141
  21613323.973                          41.600          43.200
 108332872.350 7  84415482.89146                  20615010.375
  20615013.441                          44.400          40.400
 105163179.870 7  81793639.631 7                  19665944.695    19665944.949
  19665948.582                          46.000          45.600
 116827926.000 6  91034699.86244  87241629.454 7  22231585.305
  22231592.012    22231595.766          39.400          28.200          46.900
 109389514.745 7  85081003.079 7                  20441956.422    20441955.203
  20441960.387                          45.400          44.100
 115376995.827 7  89904170.59747  86158168.757 8  21955493.578
  21955501.168    21955501.410          42.000          42.600          48.700
 124084716.469 5                                  23196234.234    23196231.668
                                        33.300
 113738246.664 7  88627532.78745  84934719.210 8  21643602.195
  21643609.824    21643609.090          42.400          31.900          48.700
 112618559.597 7  87592110.806 7                  21074989.500    21074989.797
  21074993.367                          42.400          43.100
 123529142.710 5  96256457.86845                  23506796.367
  23506803.035                          34.700          32.100
 134377951.356 6                 100347234.168 7  25571262.508
                  25571267.949          40.600                          43.800
 123846393.017 7                  92482722.897 7  23567179.039
                  23567181.359          42.700                          44.000
 122648300.512 7                  91588109.808 8  23339166.914
                  23339170.777          46.800                          51.100
 140996565.337 5                 105289808.135 6  26830705.102
                  26830709.129          35.800                          40.400
 124045208.261 7                  92631209.952 8  23605004.578
                  23605006.625          43.100                          48.800
 133013932.378 7                  99328710.948 7  25311668.391
                  25311674.910          43.100                          45.900
 123420612.569 7                  92164841.646 8  23486135.047
                  23486140.234          47.400                          51.100
 23 12 19 11 31 12.0000000  0 21G03G21G22R14G07G02R24G14R17G30R23G08
                                R15G17E25E11E24E33E12E31E10
 126301148.545 5  98416507.94144  94315826.619 7  24034285.367
  24034298.203    24034299.863          32.600          28.100          42.000
 108556298.778 7  84589553.89546                  20657520.156
  20657524.184                          43.800          37.900
 126971011.261 5  98938381.67442                  24161755.555
  24161762.430                          32.000          16.900
 101793976.859 7  79173151.066 7                  19096273.570    19096272.652
  19096278.328                          46.300          47.200
 113580713.316 6  88504481.62447                  21613663.273
  21613669.332                          41.400          43.200
 108333693.826 7  84416122.99846                  20615166.539
  20615169.848                          44.500          40.500
 105164842.328 7  81794932.672 7                  19666256.352    19666255.855
  19666259.531                          45.900          45.600
 116825076.827 6  91032479.74244  87239501.816 7  22231043.867
  22231049.855    22231053.652          39.000          26.300          46.900
 109387647.622 7  85079550.871 7                  20441607.164    20441606.313
  20441611.391                          45.400          44.300
 115377138.231 6  89904281.56147  86158275.093 8  21955519.945
  21955528.176    21955528.449          41.500          42.800          48.400
 124088422.923 5                                  23196927.125    23196924.520
                                        33.700
 113740126.748 7  88628997.78045  84936123.170 8  21643959.852
  21643967.461    21643966.742          42.200          32.400          48.900
 112615256.791 7  87589541.957 7                  21074371.852    21074371.938
  21074375.344                          42.200          42.600
 123527036.753 5  96254816.86145                  23506395.508
  23506402.309                          34.700          31.100
 134375676.381 6                 100345535.293 7  25570829.305
                  25570835.199          40.900                          44.300
 123844305.315 7                  92481163.905 7  23566781.898
                  23566784.176          42.300                          43.600
 122648166.484 7                  91588009.723 8  23339141.375
                  23339145.324          46.800                          51.200
 140999252.334 6                 105291814.686 6  26831216.297
                  26831220.770          36.400                          40.500
 124045829.005 7                  92631673.499 8  23605122.875
                  23605124.652          43.300                          48.500
 133015952.601 7                  99330219.563 7  25312052.664
                  25312059.348          42.900                          45.300
 123419845.442 7                  92164268.810 8  23485989.109
                  23485994.281          47.700                          51.200
 23 12 19 11 31 13.0000000  0 21G03G21G22R14G07G02R24G14R17G30R23G08
                                R15G17E25E11E24E33E12E31E10
 126297754.960 5  98413863.59444  94313292.469 7  24033639.266
  24033652.570    24033654.109          32.500          28.800          42.000
 108558193.973 7  84591030.66546                  20657880.086
  20657885.023                          43.700          38.100
 126968119.924 5  98936128.64442                  24161205.781
  24161212.207                          32.000          16.900
 101794437.465 7  79173509.316 7                  19096361.016    19096359.148
  19096364.801                          46.700          46.100
 113582528.179 6  88505895.79547                  21614008.266
  21614014.566                          41.900          43.100
 108334515.817 7  84416763.50946                  20615323.016
  20615326.195                          44.600          40.500
 105166505.283 7  81796226.078 7                  19666566.758    19666566.898
  19666570.602                          46.100          44.900
 116822227.851 6  91030259.75144  87237374.338 7  22230501.367
  22230507.699    22230511.414          39.900          28.000          47.000
 109385781.044 7  85078099.089 7                  20441258.867    20441257.711
  20441262.609                          45.300          43.800
 115377281.259 6  89904393.01147  86158381.915 8  21955547.188
  21955555.383    21955555.563          41.400          42.500          48.400
 124092129.340 5                                  23197619.023    23197617.598
                                        33.300
 113742006.988 7  88630462.91045  84937527.237 8  21644317.570
  21644325.285    21644324.625          42.100          32.200          49.100
 112611954.402 7  87586973.443 7                  21073754.094    21073753.934
  21073757.340                          42.300          42.300
 123524930.956 5  96253175.97445                  23505995.336
  23506001.613                          34.800          32.300
 134373401.466 6                 100343836.513 7  25570396.148
                  25570402.094          40.900                          44.300
 123842217.967 7                  92479605.188 7  23566384.398
                  23566386.926          42.400                          43.600
 122648032.779 7                  91587909.882 8  23339116.227
                  23339119.879          47.000                          50.500
 141001939.511 6                 105293821.331 6  26831727.383
                  26831732.109          36.400                          40.400
 124046450.113 7                  92632137.321 8  23605240.984
                  23605242.781          43.200                          48.400
 133017973.075 7                  99331728.348 7  25312437.281
                  25312443.863          43.600                          45.600
 123419078.785 7                  92163696.301 8  23485843.219
                  23485848.320          47.700                          51.500
 23 12 19 11 31 14.0000000  0 21G03G21G22R14G07G02R24G14R17G30R23G08
                                R15G17E25E11E24E33E12E31E10
 126294361.399 5  98411219.29044  94310758.313 7  24032993.539
  24033006.746    24033008.184          32.400          28.000          42.100
 108560089.622 7  84592507.80146                  20658240.711
  20658245.660                          43.700          37.900
 126965228.626 5  98933875.70142                  24160655.992
  24160661.922                          32.400          16.900
 101794898.943 7  79173868.235 7                  19096446.891    19096445.531
  19096451.273                          46.700          46.400
 113584343.567 6  88507310.38747                  21614354.242
  21614360.148                          41.600          43.300
 108335338.323 7  84417404.42146                  20615479.648
  20615482.789                          44.500          40.400
 105168168.710 7  81797519.852 7                  19666879.117    19666877.844
  19666881.594                          46.100          45.200
 116819379.056 6  91028039.92844  87235247.013 7  22229960.063
  22229965.492    22229969.398          39.900          27.800          47.000
 109383914.995 7  85076647.724 7                  20440910.930    20440909.078
  20440913.848                          45.400          44.000
 115377424.966 6  89904504.99047  86158489.204 8  21955574.789
  21955582.824    21955582.980          41.500          42.600          48.500
 124095835.763 5                                  23198312.344    23198310.414
                                        33.300
 113743887.370 7  88631928.13345  84938931.430 8  21644675.688
  21644683.199    21644682.336          42.100          31.500          49.100
 112608652.462 7  87584405.266 7                  21073136.438    21073135.930
  21073139.445                          42.600          42.600
 123522825.275 5  96251535.20245                  23505594.633
  23505601.113                          34.700          30.900
 134371126.654 6                 100342137.787 7  25569963.258
                  25569969.344          40.600                          44.400
 123840130.936 7                  92478046.673 7  23565987.633
                  23565989.586          42.800                          43.800
 122647899.397 7                  91587810.272 8  23339090.734
                  23339094.492          47.000                          51.000
 141004626.776 6                 105295828.046 6  26832238.586
                  26832243.348          36.200                          40.900
 124047071.644 7                  92632601.449 8  23605359.203
                  23605361.191          43.500                          48.100
 133019993.785 7                  99333237.331 7  25312821.789
                  25312828.590          43.300                          45.100
 123418312.523 7                  92163124.086 8  23485697.250
                  23485702.516          47.800                          51.500
 23 12 19 11 31 15.0000000  0 21G03G21G22R14G07G02R24G14R17G30R23G08
                                R15G17E25E11E24E33E12E31E10
 126290967.811 5  98408574.95444  94308224.172 7  24032346.961
  24032361.063    24032362.453          32.600          28.500          42.200
 108561985.734 7  84593985.29446                  20658601.938
  20658606.637                          43.700          38.100
 126962337.357 5  98931622.74242                  24160105.766
  24160111.574                          32.300          16.900
 101795361.268 7  79174227.842 7                  19096533.133    19096532.340
  19096538.004                          46.400          46.600
 113586159.479 7  88508725.38347                  21614699.766
  21614705.703                          42.100          43.200
 108336161.350 7  84418045.74346                  20615635.914
  20615639.449                          44.700          40.900
 105169832.590 7  81798813.979 7                  19667189.133    19667188.953
  19667192.762                          46.200          45.100
 116816530.482 6  91025820.25744  87233119.830 7  22229417.711
  22229423.301    22229427.398          39.600          27.900          46.900
 109382049.467 7  85075196.768 7                  20440561.203    20440560.273
  20440565.277                          45.500          44.600
 115377569.280 6  89904617.44447  86158596.993 8  21955601.617
  21955610.215    21955610.328          41.700          42.600          48.600
 124099542.128 5                                  23199003.836    23199003.230
                                        33.300
 113745767.911 6  88633393.49845  84940335.727 8  21645033.438
  21645041.000    21645040.348          41.700          31.500          48.900
 112605351.004 7  87581837.467 7                  21072517.734    21072518.102
  21072521.660                          42.700          42.800
 123520719.724 5  96249894.51545                  23505193.852
  23505200.555                          34.700          31.900
 134368851.988 6                 100340439.156 7  25569530.438
                  25569536.453          41.000                          44.600
 123838044.259 7                  92476488.446 7  23565590.328
                  23565592.648          42.700                          44.100
 122647766.365 7                  91587710.936 8  23339065.305
                  23339069.234          47.000                          50.600
 141007314.117 5                 105297834.829 6  26832749.961
                  26832754.926          35.600                          40.500
 124047693.587 7                  92633065.891 7  23605477.500
                  23605479.449          43.500                          47.600
 133022014.785 7                  99334746.525 7  25313206.148
                  25313212.977          43.100                          45.400
 123417546.696 8                  92162552.208 8  23485551.727
                  23485556.758          48.000                          51.300
 23 12 19 11 31 16.0000000  0 21G03G21G22R14G07G02R24G14R17G30R23G08
                                R15G17E25E11E24E33E12E31E10
 126287574.207 5  98405930.60444  94305690.036 7  24031701.641
  24031715.188    24031716.477          32.500          27.600          42.200
 108563882.292 7  84595463.13146                  20658962.461
  20658967.523                          43.800          37.900
 126959446.022 5  98929369.76642                  24159555.195
  24159561.320                          31.900          16.900
 101795824.451 7  79174588.089 7                  19096620.602    19096619.203
  19096625.008                          46.300          47.000
 113587975.855 7  88510140.73347                  21615045.148
  21615051.281                          42.000          43.200
 108336984.860 7  84418687.44546                  20615793.203
  20615796.078                          44.900          40.300
 105171496.872 7  81800108.424 7                  19667500.000    19667500.309
  19667503.965                          45.800          45.100
 116813682.055 6  91023600.70444  87230992.750 7  22228875.859
  22228881.082    22228885.473          39.000          28.000          46.700
 109380184.489 7  85073746.223 7                  20440212.977    20440211.961
  20440216.801                          45.500          44.700
 115377714.247 7  89904730.40547  86158705.224 8  21955629.359
  21955637.824    21955637.969          42.000          42.400          48.400
 124103248.453 5                                  23199697.063    23199696.230
                                        33.600
 113747648.534 6  88634858.92145  84941740.099 8  21645390.734
  21645398.703    21645398.070          41.700          31.100          49.100
 112602049.957 7  87579269.981 7                  21071899.484    21071900.371
  21071903.824                          42.600          43.200
 123518614.293 5  96248253.91445                  23504792.984
  23504799.957                          34.300          31.400
 134366577.340 6                 100338740.567 7  25569097.406
                  25569103.613          41.100                          44.500
 123835957.857 7                  92474930.423 7  23565193.508
                  23565195.723          42.800                          44.700
 122647633.611 7                  91587611.793 8  23339040.086
                  23339043.969          47.300                          50.500
 141010001.519 5                 105299841.684 6  26833261.711
                  26833266.180          35.300                          40.400
 124048315.901 7                  92633530.587 7  23605595.883
                  23605597.879          43.800                          47.600
 133024035.989 7                  99336255.860 7  25313591.125
                  25313597.754          43.100                          45.200
 123416781.269 8                  92161980.611 8  23485405.953
                  23485411.059          48.000                          51.000
 23 12 19 11 31 17.0000000  0 21G03G21G22R14G07G02R24G14R17G30R23G08
                                R15G17E25E11E24E33E12E31E10
 126284180.638 5  98403286.29544  94303155.878 7  24031055.391
  24031069.461    24031070.781          32.900          27.700          42.000
 108565779.253 7  84596941.28746                  20659324.133
  20659328.410                          43.800          38.000
 126956554.761 5  98927116.79542                  24159004.414
  24159011.074                          32.200          15.600
 101796288.433 7  79174948.961 7                  19096707.617    19096706.348
  19096711.984                          46.600          46.900
 113589792.760 7  88511556.50547                  21615390.875
  21615397.113                          42.000          43.200
 108337808.833 7  84419329.49846                  20615949.766
  20615952.957                          45.200          40.500
 105173161.596 7  81801403.222 7                  19667812.117    19667811.488
  19667815.316                          46.300          45.600
 116810833.801 6  91021381.28744  87228865.804 7  22228333.500
  22228339.125    22228343.352          39.000          27.500          46.400
 109378320.013 7  85072296.071 7                  20439864.461    20439863.645
  20439868.297                          45.300          44.400
 115377859.779 6  89904843.80447  86158813.923 8  21955657.227
  21955665.395    21955665.637          41.600          42.600          48.600
 124106954.704 5                                  23200390.703    23200389.371
                                        33.500
 113749529.287 6  88636324.43845  84943144.567 8  21645748.555
  21645756.648    21645755.996          41.700          31.900          48.900
 112598749.342 7  87576702.825 7                  21071282.141    21071282.773
  21071286.195                          42.700          43.200
 123516508.995 5  96246613.42945                  23504392.820
  23504399.359                          34.600          31.300
 134364302.775 6                 100337042.041 7  25568664.563
                  25568670.906          41.200                          44.400
 123833871.784 7                  92473372.627 7  23564796.469
                  23564798.867          42.900                          44.300
 122647501.153 7                  91587512.883 8  23339014.914
                  23339018.672          47.100                          50.100
 141012689.061 5                 105301848.591 6  26833773.172
                  26833777.516          35.800                          40.500
 124048938.563 7                  92633995.575 8  23605714.250
                  23605716.324          43.500                          48.000
 133026057.422 7                  99337765.378 7  25313975.594
                  25313982.289          43.100                          45.500
 123416016.216 7                  92161409.318 8  23485260.484
                  23485265.516          47.900                          51.300
 23 12 19 11 31 18.0000000  0 21G03G21G22R14G07G02R24G14R17G30R23G08
                                R15G17E25E11E24E33E12E31E10
 126280787.049 5  98400641.97144  94300621.728 6  24030410.336
  24030423.426    24030424.980          32.400          27.500          41.900
 108567676.698 7  84598419.80946                  20659684.695
  20659689.402                          43.900          37.900
 126953663.489 5  98924863.92842                  24158454.000
  24158460.715                          32.400          16.300
 101796753.219 7  79175310.460 7                  19096794.117    19096793.602
  19096799.039                          46.700          47.400
 113591610.165 6  88512972.65447                  21615737.109
  21615742.977                          41.700          43.400
 108338633.313 7  84419971.95246                  20616106.836
  20616109.738                          44.900          40.200
 105174826.795 7  81802698.366 7                  19668123.000    19668122.930
  19668126.691                          46.000          45.600
 116807985.710 6  91019161.98644  87226738.987 7  22227792.055
  22227797.262    22227801.461          39.100          28.300          46.900
 109376456.057 7  85070846.346 7                  20439516.445    20439515.625
  20439520.094                          45.300          44.400
 115378005.951 6  89904957.70247  86158923.069 8  21955685.156
  21955693.352    21955693.332          41.600          42.500          48.400
 124110660.872 5                                  23201083.883    23201082.043
                                        33.000
 113751410.182 6  88637790.07145  84944549.132 8  21646106.703
  21646114.504    21646113.859          41.400          32.600          49.000
 112595449.159 7  87574136.024 7                  21070664.508    21070664.980
  21070668.734                          42.800          43.000
 123514403.788 5  96244973.02345                  23503991.727
  23503998.695                          34.600          32.400
 134362028.326 6                 100335343.581 7  25568231.945
                  25568237.973          41.500                          44.500
 123831786.000 7                  92471815.068 7  23564399.484
                  23564401.789          42.400                          44.100
 122647368.990 7                  91587414.205 8  23338989.750
                  23338993.500          47.500                          50.700
 141015376.646 5                 105303855.580 6  26834284.648
                  26834289.184          35.800                          40.400
 124049561.637 7                  92634460.851 8  23605833.078
                  23605834.895          43.700                          48.200
 133028079.093 7                  99339275.056 7  25314360.328
                  25314367.027          43.000                          45.700
 123415251.581 7                  92160838.319 8  23485114.984
                  23485120.047          47.300                          51.000
 23 12 19 11 31 19.0000000  0 21G03G21G22R14G07G02R24G14R17G30R23G08
                                R15G17E25E11E24E33E12E31E10
 126277393.475 5  98397997.64644  94298087.615 6  24029763.969
  24029777.707    24029779.176          32.600          28.600          41.900
 108569574.591 7  84599898.68146                  20660046.352
  20660050.602                          43.600          38.200
 126950772.178 5  98922610.96742                  24157904.664
  24157910.465                          32.300          16.900
 101797218.834 7  79175672.607 7                  19096881.352    19096880.773
  19096886.449                          46.700          47.100
 113593428.091 6  88514389.22547                  21616082.906
  21616088.867                          41.700          43.300
 108339458.329 7  84420614.82446                  20616263.750
  20616266.809                          45.600          40.600
 105176492.499 7  81803993.913 7                  19668434.594    19668434.457
  19668438.250                          46.100          45.500
 116805137.818 6  91016942.84544  87224612.326 7  22227249.609
  22227255.391    22227259.516          39.400          28.000          46.700
 109374592.675 7  85069397.044 7                  20439168.266    20439167.543
  20439172.023                          45.600          44.600
 115378152.799 6  89905072.13347  86159032.729 8  21955712.477
  21955721.285    21955721.324          41.300          42.400          48.300
 124114367.066 5                                  23201776.750    23201774.816
                                        32.700
 113753291.266 6  88639255.85845  84945953.831 8  21646464.531
  21646472.555    21646471.836          41.700          32.100          48.700
 112592149.400 7  87571569.538 7                  21070047.023    21070047.340
  21070051.250                          42.900          42.800
 123512298.717 5  96243332.69745                  23503590.953
  23503598.234                          34.700          31.900
 134359753.961 6                 100333645.208 7  25567799.438
                  25567805.074          41.200                          44.300
 123829700.557 7                  92470257.771 7  23564002.500
                  23564004.750          42.300                          44.000
 122647237.192 7                  91587315.767 8  23338964.680
                  23338968.449          47.700                          50.800
 141018064.368 5                 105305862.616 6  26834795.953
                  26834800.340          35.800                          40.300
 124050185.129 7                  92634926.438 8  23605951.789
                  23605953.621          43.300                          48.600
 133030101.024 7                  99340784.950 7  25314745.266
                  25314751.641          42.600                          45.700
 123414487.375 7                  92160267.646 8  23484969.641
                  23484974.574          47.400                          51.700
 23 12 19 11 31 20.0000000  0 21G03G21G22R14G07G02R24G14R17G30R23G08
                                R15G17E25E11E24E33E12E31E10
 126273999.973 5  98395353.37844  94295553.527 6  24029119.133
  24029131.898    24029133.320          32.600          28.900          41.800
 108571472.959 7  84601377.93246                  20660407.273
  20660411.785                          43.800          38.100
 126947880.990 5  98920358.08342                  24157354.047
  24157360.234                          31.600          16.900
 101797685.304 7  79176035.425 7                  19096969.086    19096968.379
  19096973.980                          46.200          47.300
 113595246.563 6  88515806.20947                  21616428.375
  21616435.016                          41.600          43.100
 108340283.866 7  84421258.09946                  20616420.547
  20616423.926                          45.500          40.800
 105178158.644 7  81805289.794 7                  19668746.172    19668746.160
  19668749.762                          46.300          45.500
 116802290.129 6  91014723.87244  87222485.809 7  22226707.469
  22226713.516    22226717.656          39.500          26.700          46.700
 109372729.857 7  85067948.175 7                  20438820.313    20438819.301
  20438823.859                          45.600          44.700
 115378300.277 6  89905187.04647  86159142.859 8  21955741.211
  21955749.340    21955749.449          41.400          42.400          48.300
 124118073.174 5                                  23202470.781    23202467.086
                                        33.400
 113755172.476 6  88640721.72945  84947358.620 8  21646822.844
  21646830.590    21646829.867          41.400          33.100          48.800
 112588850.111 7  87569003.423 7                  21069429.609    21069430.094
  21069433.879                          42.400          42.800
 123510193.827 5  96241692.53345                  23503190.984
  23503197.629                          34.400          31.600
 134357479.742 6                 100331946.910 7  25567366.469
                  25567372.391          41.300                          44.200
 123827615.455 7                  92468700.702 7  23563605.906
                  23563608.121          42.300                          43.900
 122647105.708 7                  91587217.588 8  23338939.719
                  23338943.461          47.000                          51.000
 141020752.194 5                 105307869.783 6  26835307.477
                  26835311.953          35.300                          40.500
 124050809.018 7                  92635392.332 8  23606070.234
                  23606072.438          43.500                          48.800
 133032123.220 7                  99342295.023 7  25315129.984
                  25315136.535          43.000                          45.800
 123413723.604 7                  92159697.300 8  23484824.172
                  23484829.168          47.200                          51.400
 23 12 19 11 31 21.0000000  0 21G03G21G22R14G07G02R24G14R17G30R23G08
                                R15G17E25E11E24E33E12E31E10
 126270606.428 5  98392709.07844  94293019.396 6  24028472.313
  24028486.016    24028487.512          33.100          27.700          41.600
 108573371.745 7  84602857.51246                  20660768.672
  20660773.242                          43.900          38.100
 126944989.710 5  98918105.15342                  24156804.750
  24156810.070                          31.900          16.900
 101798152.621 7  79176398.873 7                  19097056.594    19097056.004
  19097061.680                          46.100          47.400
 113597065.523 6  88517223.58447                  21616774.633
  21616781.063                          41.700          43.500
 108341109.858 7  84421901.73846                  20616578.422
  20616581.176                          45.000          40.300
 105179825.162 7  81806585.993 7                  19669058.539    19669057.570
  19669061.379                          46.200          46.100
 116799442.621 6  91012505.03544  87220359.417 7  22226165.805
  22226171.586    22226175.809          39.500          26.700          47.100
 109370867.519 7  85066499.692 7                  20438472.758    20438471.148
  20438475.875                          45.600          44.700
 115378448.369 6  89905302.44447  86159253.450 8  21955769.391
  21955777.563    21955777.586          41.300          42.500          48.400
 124121779.246 5                                  23203163.430    23203160.004
                                        33.700
 113757053.820 6  88642187.71145  84948763.521 8  21647180.789
  21647188.695    21647187.813          41.300          32.500          48.900
 112585551.239 7  87566437.644 7                  21068812.211    21068812.836
  21068816.531                          42.300          43.200
 123508088.979 5  96240052.39145                  23502789.977
  23502797.121                          34.700          31.900
 134355205.551 6                 100330248.669 7  25566933.570
                  25566939.742          41.200                          44.100
 123825530.614 7                  92467143.863 7  23563208.836
                  23563211.465          42.500                          44.000
 122646974.494 7                  91587119.614 8  23338914.664
                  23338918.523          47.100                          51.000
 141023440.093 5                 105309876.960 6  26835819.055
                  26835823.426          35.300                          40.600
 124051433.298 7                  92635858.521 8  23606188.836
                  23606191.039          43.400                          48.600
 133034145.611 7                  99343805.271 7  25315514.680
                  25315521.469          42.600                          45.900
 123412960.224 7                  92159127.237 8  23484679.008
                  23484683.914          47.500                          51.400
 23 12 19 11 31 22.0000000  0 21G03G21G22R14G07G02R24G14R17G30R23G08
                                R15G17E25E11E24E33E12E31E10
 126267212.858 5  98390064.77144  94290485.306 6  24027826.664
  24027840.195    24027841.711          32.400          28.300          41.300
 108575270.972 7  84604337.42746                  20661130.430
  20661134.637                          43.700          37.900
 126942098.457 5  98915852.21842                  24156254.555
  24156259.855                          32.200          15.600
 101798620.776 7  79176763.002 7                  19097144.250    19097143.902
  19097149.484                          46.200          47.200
 113598884.982 7  88518641.34547                  21617121.406
  21617127.313                          42.100          43.200
 108341936.380 7  84422545.77246                  20616735.508
  20616738.395                          45.400          40.400
 105181492.126 7  81807882.508 7                  19669369.914    19669369.500
  19669373.227                          46.200          46.100
 116796595.277 6  91010286.32544  87218233.144 7  22225624.125
  22225629.781    22225634.023          39.200          28.500          47.200
 109369005.693 7  85065051.613 7                  20438124.070    20438123.457
  20438127.922                          45.700          44.600
 115378597.107 6  89905418.34347  86159364.504 8  21955797.969
  21955805.727    21955805.867          41.500          42.600          48.400
 124125485.236 5                                  23203854.453    23203852.941
                                        34.200
 113758935.305 6  88643653.81145  84950168.541 8  21647538.703
  21647546.559    21647545.840          41.300          32.100          49.000
 112582252.807 7  87563872.199 7                  21068196.055    21068195.176
  21068199.309                          42.500          43.300
 123505984.346 5  96238412.42445                  23502389.781
  23502396.547                          33.600          31.300
 134352931.485 6                 100328550.492 7  25566500.633
                  25566507.039          41.500                          44.300
 123823446.143 7                  92465587.257 7  23562812.266
                  23562814.773          42.100                          43.600
 122646843.643 7                  91587021.890 8  23338889.727
                  23338893.559          47.200                          50.700
 141026128.089 5                 105311884.234 6  26836330.750
                  26836335.098          35.700                          40.400
 124052057.930 7                  92636324.977 8  23606307.906
                  23606310.078          43.000                          48.500
 133036168.285 7                  99345315.697 7  25315899.633
                  25315906.320          42.400                          45.800
 123412197.244 7                  92158557.486 8  23484533.750
                  23484538.742          47.300                          51.500
 23 12 19 11 31 23.0000000  0 21G03G21G22R14G07G02R24G14R17G30R23G08
                                R15G17E25E11E24E33E12E31E10
 126263819.378 5  98387420.51644  94287951.226 6  24027181.180
  24027194.410    24027196.023          32.000          27.100          41.300
 108577170.674 7  84605817.71446                  20661491.703
  20661495.930                          43.700          37.900
 126939207.274 5  98913599.33142                  24155704.781
  24155709.621                          32.300          16.300
 101799089.782 7  79177127.794 7                  19097232.633    19097231.723
  19097237.504                          46.100          46.100
 113600704.969 7  88520059.51547                  21617467.555
  21617473.797                          42.500          43.500
 108342763.407 7  84423190.21646                  20616892.719
  20616895.773                          45.400          40.500
 105183159.590 7  81809179.424 7                  19669681.359    19669681.258
  19669685.066                          46.300          45.900
 116793748.129 6  91008067.77944  87216107.035 7  22225082.984
  22225087.984    22225092.270          39.600          27.500          47.100
 109367144.405 7  85063603.943 7                  20437776.188    20437775.543
  20437779.961                          45.400          44.700
 115378746.443 6  89905534.71047  86159476.032 8  21955825.984
  21955834.340    21955834.227          41.400          42.300          48.600
 124129191.229 5                                  23204546.727    23204546.223
                                        33.600
 113760816.960 6  88645120.03145  84951573.671 8  21647896.648
  21647904.574    21647903.973          41.400          32.200          49.000
 112578954.784 7  87561307.091 7                  21067578.492    21067578.113
  21067582.238                          42.900          43.100
 123503879.727 5  96236772.47145                  23501988.047
  23501996.227                          34.300          31.600
 134350657.501 6                 100326852.396 7  25566067.945
                  25566074.125          41.400                          44.600
 123821361.972 7                  92464030.898 7  23562415.781
                  23562418.160          42.100                          43.600
 122646713.089 7                  91586924.400 8  23338864.844
                  23338868.777          47.300                          50.900
 141028816.175 5                 105313891.574 6  26836841.930
                  26836846.590          35.600                          40.900
 124052682.984 7                  92636791.728 8  23606427.023
                  23606428.898          43.200                          48.600
 133038191.168 7                  99346826.304 7  25316284.531
                  25316291.223          42.600                          46.000
 123411434.702 7                  92157988.040 8  23484388.758
                  23484393.762          47.500                          51.500
 23 12 19 11 31 24.0000000  0 21G03G21G22R14G07G02R24G14R17G30R23G08
                                R15G17E25E11E24E33E12E31E10
 126260425.881 5  98384776.25144  94285417.140 6  24026536.258
  24026548.648    24026550.387          32.600          28.400          41.700
 108579070.816 7  84607298.34446                  20661852.930
  20661857.664                          43.500          38.400
 126936316.092 5  98911346.48742                  24155153.914
  24155159.426                          32.400          17.400
 101799559.627 7  79177493.223 7                  19097320.938    19097320.125
  19097325.621                          46.500          46.400
 113602525.478 7  88521478.10347                  21617814.281
  21617820.090                          42.200          43.500
 108343590.919 7  84423835.03346                  20617049.789
  20617053.125                          45.400          40.200
 105184827.517 7  81810476.690 7                  19669993.977    19669993.266
  19669997.129                          46.400          45.900
 116790901.160 6  91005849.35844  87213981.059 7  22224540.898
  22224546.176    22224550.535          39.700          27.700          46.900
 109365283.630 7  85062156.668 7                  20437427.781    20437428.031
  20437432.355                          45.600          44.700
 115378896.434 6  89905651.58347  86159588.040 8  21955854.242
  21955862.699    21955862.844          41.200          42.500          48.400
 124132897.170 5                                  23205240.227    23205238.516
                                        33.500
 113762698.732 6  88646586.35145  84952978.893 8  21648255.141
  21648262.797    21648261.992          41.300          32.400          48.900
 112575657.216 7  87558742.295 7                  21066961.594    21066960.977
  21066965.180                          42.700          43.100
 123501775.271 5  96235132.63145                  23501588.180
  23501595.684                          33.700          30.600
 134348383.612 6                 100325154.362 7  25565635.344
                  25565641.598          40.600                          44.700
 123819278.107 6                  92462474.782 7  23562019.328
                  23562021.688          41.900                          43.700
 122646582.839 7                  91586827.150 8  23338840.250
                  23338844.027          47.500                          51.000
 141031504.379 5                 105315899.002 6  26837353.375
                  26837357.953          35.400                          40.900
 124053308.434 7                  92637258.774 8  23606545.852
                  23606547.941          43.400                          48.500
 133040214.350 7                  99348337.091 7  25316669.641
                  25316676.074          42.300                          46.100
 123410672.533 7                  92157418.914 8  23484243.680
                  23484248.508          47.100                          51.500
 23 12 19 11 31 25.0000000  0 21G03G21G22R14G07G02R24G14R17G30R23G08
                                R15G17E25E11E24E33E12E31E10
 126257032.388 5  98382132.02144  94282883.089 6  24025890.070
  24025902.969    24025904.422          33.100          29.400          41.100
 108580971.397 7  84608779.31646                  20662214.805
  20662219.223                          43.400          38.000
 126933424.860 5  98909093.54142                  24154604.281
  24154609.211                          33.000          17.800
 101800030.284 7  79177859.290 7                  19097408.969    19097408.270
  19097413.887                          46.300          46.500
 113604346.493 7  88522897.07147                  21618161.289
  21618166.656                          42.500          43.400
 108344418.968 7  84424480.25946                  20617207.664
  20617210.656                          45.100          40.600
 105186495.882 7  81811774.309 7                  19670304.898    19670305.230
  19670308.977                          46.200          46.000
 116788054.399 6  91003631.10044  87211855.212 7  22223999.133
  22224004.336    22224008.789          39.800          27.700          46.900
 109363423.422 7  85060709.855 7                  20437080.398    20437080.109
  20437084.660                          45.700          44.900
 115379047.081 6  89905768.97147  86159700.532 8  21955883.484
  21955891.383    21955891.563          41.400          42.500          48.200
 124136603.008 5                                  23205934.141    23205931.383
                                        34.100
 113764580.656 6  88648052.78645  84954384.226 8  21648612.836
  21648620.895    21648620.160          41.700          32.400          48.800
 112572360.096 7  87556177.864 7                  21066343.266    21066344.172
  21066348.141                          42.800          43.200
 123499671.013 5  96233492.95745                  23501188.063
  23501195.203                          33.700          30.400
 134346109.854 6                 100323456.412 7  25565202.555
                  25565208.824          41.100                          44.400
 123817194.593 7                  92460918.909 7  23561622.797
                  23561625.348          42.300                          44.200
 122646452.940 7                  91586730.130 8  23338815.539
                  23338819.301          47.200                          51.100
 141034192.681 6                 105317906.498 6  26837865.242
                  26837869.863          36.000                          40.900
 124053934.258 7                  92637726.136 8  23606664.992
                  23606667.164          43.200                          48.300
 133042237.724 7                  99349848.072 7  25317054.586
                  25317061.215          42.400                          46.100
 123409910.821 7                  92156850.095 8  23484098.898
                  23484103.590          47.600                          51.500
 23 12 19 11 31 26.0000000  0 21G03G21G22R14G07G02R24G14R17G30R23G08
                                R15G17E25E11E24E33E12E31E10
 126253638.925 5  98379487.78544  94280349.028 6  24025244.711
  24025257.250    24025258.570          32.600          28.600          41.400
 108582872.464 7  84610260.66246                  20662576.148
  20662580.891                          43.600          38.000
 126930533.689 5  98906840.62742                  24154054.727
  24154059.023                          32.600          16.900
 101800501.746 7  79178225.981 7                  19097497.945    19097496.551
  19097502.316                          46.100          46.700
 113606168.037 7  88524316.46247                  21618507.656
  21618513.277                          43.000          43.400
 108345247.485 7  84425125.86546                  20617365.273
  20617368.316                          44.900          40.700
 105188164.687 7  81813072.283 7                  19670617.977    19670617.383
  19670621.059                          46.100          45.900
 116785207.778 6  91001412.95744  87209729.506 7  22223457.078
  22223462.375    22223467.133          39.400          26.400          46.800
 109361563.766 7  85059263.452 7                  20436732.797    20436732.633
  20436737.160                          45.600          44.100
 115379198.333 6  89905886.83047  86159813.477 8  21955911.836
  21955920.168    21955920.398          40.900          42.400          48.200
 124140308.854 5                                  23206626.859    23206623.855
                                        33.700
 113766462.729 6  88649519.33945  84955789.656 8  21648971.211
  21648979.051    21648978.262          41.400          32.100          48.800
 112569063.407 7  87553613.792 7                  21065727.008    21065727.328
  21065731.063                          42.800          42.800
 123497566.853 5  96231853.35445                  23500787.414
  23500794.977                          33.900          31.000
 134343836.139 6                 100321758.523 7  25564770.063
                  25564776.195          41.100                          44.600
 123815111.413 7                  92459363.270 7  23561226.539
                  23561228.789          42.300                          43.900
 122646323.321 7                  91586633.345 8  23338790.781
                  23338794.703          47.200                          51.200
 141036881.044 5                 105319914.069 6  26838376.938
                  26838381.363          35.400                          40.500
 124054560.477 7                  92638193.766 8  23606784.383
                  23606786.336          43.000                          48.600
 133044261.379 7                  99351359.227 7  25317439.992
                  25317446.129          42.200                          45.900
 123409149.509 7                  92156281.575 8  23483953.891
                  23483958.781          47.100                          51.100
 23 12 19 11 31 27.0000000  0 21G03G21G22R14G07G02R24G14R17G30R23G08
                                R15G17E25E11E24E33E12E31E10
 126250245.497 5  98376843.58444  94277814.979 6  24024598.484
  24024611.555    24024612.613          32.900          29.000          41.800
 108584773.939 7  84611742.33546                  20662938.359
  20662942.805                          43.400          37.900
 126927642.510 5  98904587.79542                  24153504.453
  24153508.867                          32.400          16.300
 101800974.054 7  79178593.335 7                  19097585.750    19097585.488
  19097590.871                          45.800          47.100
 113607990.058 7  88525736.22147                  21618854.109
  21618860.066                          43.500          43.500
 108346076.495 7  84425771.84446                  20617522.875
  20617526.219                          45.000          40.600
 105189833.931 7  81814370.569 7                  19670929.977    19670929.543
  19670933.254                          46.000          46.000
 116782361.352 6  90999194.95744  87207603.931 7  22222915.461
  22222920.742    22222925.566          39.000          28.700          46.800
 109359704.622 7  85057817.451 7                  20436386.180    20436385.137
  20436389.840                          45.700          44.300
 115379350.203 6  89906005.17547  86159926.894 8  21955940.344
  21955948.988    21955949.230          41.200          42.500          48.500
 124144014.662 5                                  23207318.641    23207316.434
                                        33.700
 113768344.932 6  88650985.99445  84957195.204 8  21649328.875
  21649337.281    21649336.453          41.200          32.400          49.000
 112565767.210 7  87551050.076 7                  21065110.102    21065110.191
  21065114.258                          43.100          43.200
 123495462.772 5  96230213.81545                  23500386.078
  23500394.371                          34.300          31.200
 134341562.516 6                 100320060.691 7  25564337.477
                  25564343.465          40.700                          45.100
 123813028.486 7                  92457807.857 7  23560830.375
                  23560832.563          42.600                          43.800
 122646194.015 7                  91586536.787 8  23338766.359
                  23338769.938          47.300                          51.200
 141039569.517 5                 105321921.664 6  26838888.320
                  26838893.035          35.800                          40.400
 124055187.065 7                  92638661.679 8  23606903.406
                  23606905.406          43.100                          48.300
 133046285.230 7                  99352870.541 7  25317824.977
                  25317831.480          42.400                          46.100
 123408388.584 7                  92155713.355 8  23483809.117
                  23483814.105          47.100                          51.200
 23 12 19 11 31 28.0000000  0 21G03G21G22R14G07G02R24G14R17G30R23G08
                                R15G17E25E11E24E33E12E31E10
 126246852.055 5  98374199.36044  94275280.939 6  24023953.461
  24023965.770    24023966.730          33.400          28.800          41.700
 108586675.907 7  84613224.38846                  20663300.102
  20663304.797                          43.600          38.100
 126924751.379 5  98902334.95742                  24152952.938
  24152958.734                          32.500          17.400
 101801447.236 7  79178961.367 7                  19097674.648    19097673.852
  19097679.723                          46.000          47.400
 113609812.631 7  88527156.40247                  21619200.742
  21619206.848                          43.300          43.600
 108346906.049 7  84426418.24846                  20617680.969
  20617684.109                          44.700          40.500
 105191503.631 7  81815669.236 7                  19671241.648    19671241.781
  19671245.539                          46.300          46.000
 116779515.116 6  90996977.11944  87205478.487 7  22222373.898
  22222379.020    22222383.895          39.100          26.900          47.100
 109357846.001 7  85056371.867 7                  20436038.945    20436037.770
  20436042.316                          45.800          44.400
 115379502.736 6  89906124.03147  86160040.794 8  21955969.414
  21955978.125    21955978.324          41.700          42.600          48.400
 124147720.410 5                                  23208011.148    23208009.527
                                        33.800
 113770227.300 6  88652452.77145  84958600.852 8  21649687.633
  21649695.434    21649694.641          41.200          32.300          49.100
 112562471.453 7  87548486.718 7                  21064493.336    21064493.887
  21064497.508                          42.700          43.100
 123493358.868 5  96228574.39945                  23499986.766
  23499994.035                          33.600          31.000
 134339288.983 6                 100318362.955 7  25563904.672
                  25563910.688          41.000                          44.800
 123810945.927 7                  92456252.703 7  23560433.969
                  23560436.254          42.500                          43.800
 122646065.046 7                  91586440.482 8  23338741.672
                  23338745.484          47.100                          51.200
 141042258.131 5                 105323929.392 6  26839400.102
                  26839404.539          35.600                          40.900
 124055814.082 7                  92639129.904 8  23607022.672
                  23607024.793          43.100                          48.200
 133048309.363 7                  99354382.087 7  25318210.070
                  25318216.488          42.100                          45.900
 123407628.104 7                  92155145.462 8  23483664.469
                  23483669.262          46.900                          51.300
 23 12 19 11 31 29.0000000  0 21G03G21G22R14G07G02R24G14R17G30R23G08
                                R15G17E25E11E24E33E12E31E10
 126243458.591 5  98371555.13344  94272746.924 6  24023306.867
  24023319.965    24023321.168          33.000          29.000          41.400
 108588578.314 7  84614706.79146                  20663661.938
  20663666.898                          43.700          38.000
 126921860.272 5  98900082.16842                  24152403.977
  24152408.684                          32.600          16.300
 101801921.289 7  79179330.065 7                  19097763.430    19097762.832
  19097768.539                          46.000          47.400
 113611635.726 7  88528577.00147                  21619547.703
  21619553.754                          43.700          43.400
 108347736.108 7  84427065.05446                  20617838.883
  20617842.074                          44.500          40.500
 105193173.805 7  81816968.261 7                  19671554.430    19671554.141
  19671557.914                          46.200          45.700
 116776669.107 6  90994759.44844  87203353.230 7  22221832.578
  22221837.465    22221842.199          39.200          27.200          47.000
 109355987.938 7  85054926.701 7                  20435690.781    20435690.672
  20435695.094                          45.400          44.100
 115379655.909 7  89906243.38047  86160155.184 8  21955998.813
  21956007.383    21956007.309          42.000          42.500          48.300
 124151426.168 5                                  23208702.977    23208701.621
                                        33.400
 113772109.795 6  88653919.64845  84960006.651 8  21650046.008
  21650053.688    21650052.906          41.100          31.500          48.900
 112559176.157 7  87545923.711 7                  21063876.711    21063876.770
  21063881.012                          42.600          43.000
 123491255.113 5  96226935.11445                  23499586.016
  23499593.645                          34.000          31.500
 134337015.627 6                 100316665.287 7  25563472.219
                  25563478.191          41.200                          44.600
 123808863.685 7                  92454697.783 7  23560037.953
                  23560040.059          42.100                          44.200
 122645936.410 7                  91586344.414 8  23338717.148
                  23338720.973          47.100                          50.800
 141044946.783 5                 105325937.165 6  26839911.633
                  26839916.324          35.600                          40.800
 124056441.522 7                  92639598.438 8  23607142.242
                  23607144.246          43.200                          48.300
 133050333.756 7                  99355893.790 7  25318595.211
                  25318601.668          42.200                          45.600
 123406868.046 7                  92154577.894 8  23483519.750
                  23483524.590          47.100                          51.200
 23 12 19 11 31 30.0000000  0 21G03G21G22R14G07G02R24G14R17G30R23G08
                                R15G17E25E11E24E33E12E31E10
 126240065.221 5  98368910.97444  94270212.926 6  24022660.047
  24022674.082    24022675.406          33.000          28.300          41.500
 108590481.229 7  84616189.57446                  20664024.031
  20664029.000                          43.500          37.900
 126918969.157 5  98897829.39642                  24151853.945
  24151858.527                          32.200          16.900
 101802396.180 7  79179699.438 7                  19097852.930    19097851.934
  19097857.598                          46.600          47.500
 113613459.333 7  88529997.98847                  21619894.742
  21619900.875                          43.400          43.500
 108348566.675 7  84427712.24746                  20617996.578
  20618000.074                          44.700          40.800
 105194844.413 7  81818267.615 7                  19671866.273    19671866.523
  19671870.258                          46.700          45.500
 116773823.234 6  90992541.89044  87201228.074 7  22221290.617
  22221296.145    22221300.848          39.400          28.300          46.900
 109354130.397 7  85053481.952 7                  20435344.523    20435343.438
  20435348.000                          45.500          44.100
 115379809.736 6  89906363.24847  86160270.043 8  21956028.211
  21956036.590    21956036.574          41.700          42.700          48.300
 124155131.858 5                                  23209396.750    23209394.781
                                        33.600
 113773992.492 6  88655386.68045  84961412.535 8  21650404.102
  21650411.879    21650411.215          40.900          31.800          48.600
 112555881.278 7  87543361.016 7                  21063259.602    21063260.211
  21063264.355                          42.800          43.100
 123489151.417 5  96225295.87645                  23499185.758
  23499193.191                          33.700          31.600
 134334742.367 6                 100314967.687 7  25563039.547
                  25563045.605          40.900                          44.400
 123806781.770 7                  92453143.113 7  23559641.586
                  23559643.879          42.300                          44.300
 122645808.089 7                  91586248.594 8  23338692.703
                  23338696.598          47.500                          50.800
 141047635.570 5                 105327945.020 6  26840423.547
                  26840428.020          35.500                          41.200
 124057069.337 7                  92640067.253 8  23607261.602
                  23607263.676          43.000                          48.200
 133052358.377 7                  99357405.696 7  25318980.453
                  25318987.070          42.100                          45.500
 123406108.415 7                  92154010.635 8  23483375.094
                  23483380.098          47.200                          50.800
 23 12 19 11 31 31.0000000  0 21G03G21G22R14G07G02R24G14R17G30R23G08
                                R15G17E25E11E24E33E12E31E10
 126236671.809 5  98366266.78244  94267678.939 6  24022015.219
  24022028.336    24022029.520          32.800          28.100          41.300
 108592384.537 7  84617672.67946                  20664386.430
  20664391.039                          43.400          37.800
 126916078.063 5  98895576.53942                  24151302.055
  24151308.543                          32.500          15.600
 101802871.924 7  79180069.452 7                  19097942.398    19097941.336
  19097946.738                          46.300          47.500
 113615283.455 7  88531419.38547                  21620241.859
  21620248.043                          43.100          43.500
 108349397.748 7  84428359.83546                  20618155.281
  20618158.184                          44.300          40.900
 105196515.505 7  81819567.348 7                  19672179.477    19672178.934
  19672182.820                          46.000          45.300
 116770977.597 6  90990324.51644  87199103.089 7  22220749.258
  22220754.703    22220759.301          39.900          27.900          46.700
 109352273.423 7  85052037.635 7                  20434996.430    20434996.684
  20435000.906                          45.500          44.400
 115379964.176 6  89906483.58847  86160385.374 8  21956057.648
  21956065.875    21956065.922          41.100          42.300          48.600
 124158837.563 5                                  23210089.016    23210087.414
                                        33.600
 113775875.297 6  88656853.80945  84962818.522 8  21650762.328
  21650770.191    21650769.477          41.200          31.800          48.700
 112552586.817 7  87540798.649 7                  21062642.891    21062643.543
  21062647.910                          43.100          43.400
 123487047.938 5  96223656.79245                  23498785.188
  23498793.016                          33.400          30.400
 134332469.150 6                 100313270.191 7  25562607.031
                  25562612.953          40.400                          44.300
 123804700.187 7                  92451588.688 7  23559245.336
                  23559247.641          42.400                          44.400
 122645680.099 7                  91586153.013 8  23338668.305
                  23338672.176          47.700                          50.900
 141050324.467 5                 105329952.954 6  26840935.109
                  26840939.641          35.700                          41.200
 124057697.540 7                  92640536.380 8  23607381.297
                  23607383.266          43.200                          48.400
 133054383.274 7                  99358917.776 7  25319365.602
                  25319372.328          42.000                          45.400
 123405349.186 7                  92153443.681 8  23483230.797
                  23483235.637          47.500                          50.600
 23 12 19 11 31 32.0000000  0 21G03G21G22R14G07G02R24G14R17G30R23G08
                                R15G17E25E11E24E33E12E31E10
 126233278.480 5  98363622.64744  94265144.953 6  24021368.602
  24021382.535    24021383.852          32.300          27.500          41.200
 108594288.322 7  84619156.14746                  20664748.914
  20664753.359                          43.500          38.300
 126913187.051 5  98893323.75242                  24150752.820
  24150758.277                          32.300          15.600
 101803348.475 7  79180440.100 7                  19098031.867    19098030.555
  19098036.203                          46.600          47.600
 113617108.100 7  88532841.18547                  21620589.188
  21620595.207                          43.000          43.500
 108350229.328 7  84429007.81846                  20618313.664
  20618316.555                          44.700          40.400
 105198187.053 7  81820867.450 7                  19672491.141    19672491.488
  19672495.352                          46.200          45.800
 116768132.119 6  90988107.25144  87196978.218 7  22220207.602
  22220213.504    22220217.758          39.300          27.400          46.600
 109350416.961 7  85050593.713 7                  20434650.359    20434649.461
  20434653.941                          45.500          44.600
 115380119.261 6  89906604.43847  86160501.188 8  21956087.430
  21956095.383    21956095.371          41.000          42.500          48.500
 124162543.156 5                                  23210782.336    23210779.957
                                        33.700
 113777758.245 6  88658321.03845  84964224.631 8  21651120.844
  21651128.648    21651127.875          40.900          32.500          48.700
 112549292.797 7  87538236.654 7                  21062026.766    21062027.172
  21062031.625                          43.400          43.400
 123484944.570 5  96222017.81945                  23498384.477
  23498392.793                          33.500          30.400
 134330196.034 6                 100311572.739 7  25562174.438
                  25562180.441          40.700                          44.500
 123802618.944 7                  92450034.502 7  23558849.258
                  23558851.668          42.600                          44.400
 122645552.408 7                  91586057.672 8  23338644.063
                  23338647.930          47.600                          50.800
 141053013.471 5                 105331960.950 6  26841447.070
                  26841451.031          35.600                          41.000
 124058326.158 7                  92641005.803 8  23607500.992
                  23607502.852          43.500                          48.400
 133056408.410 6                  99360430.055 7  25319751.172
                  25319757.543          41.800                          45.500
 123404590.369 7                  92152877.043 8  23483086.258
                  23483091.211          47.900                          50.500
 23 12 19 11 31 33.0000000  0 21G03G21G22R14G07G02R24G14R17G30R23G08
                                R15G17E25E11E24E33E12E31E10
 126229885.165 5  98360978.52944  94262611.015 6  24020723.055
  24020736.863    24020738.055          32.900          27.800          41.500
 108596192.563 7  84620639.97446                  20665111.102
  20665115.793                          43.500          37.800
 126910296.014 5  98891071.07842                  24150202.703
  24150208.148                          33.000          15.600
 101803825.839 7  79180811.387 7                  19098121.969    19098120.066
  19098125.742                          46.200          46.200
 113618933.243 7  88534263.37847                  21620936.531
  21620942.480                          42.500          43.300
 108351061.423 7  84429656.20346                  20618471.969
  20618474.809                          44.600          40.400
 105199859.061 7  81822167.906 7                  19672804.148    19672804.328
  19672808.125                          46.300          44.600
 116765286.843 6  90985890.15544  87194853.523 7  22219666.328
  22219672.047    22219676.297          39.200          26.900          46.800
 109348561.052 7  85049150.230 7                  20434302.906    20434302.996
  20434307.227                          45.600          43.300
 115380275.014 6  89906725.79947  86160617.485 8  21956116.672
  21956124.965    21956125.004          41.400          42.300          48.400
 124166248.700 5                                  23211475.180    23211472.977
                                        33.700
 113779641.375 6  88659788.41245  84965630.849 8  21651479.203
  21651486.918    21651486.152          41.100          31.900          48.500
 112545999.281 7  87535675.019 7                  21061411.078    21061410.777
  21061415.215                          43.400          43.000
 123482841.299 5  96220378.90545                  23497985.016
  23497992.254                          32.900          30.700
 134327923.047 6                 100309875.380 7  25561741.820
                  25561747.750          40.400                          44.400
 123800538.011 7                  92448480.573 7  23558453.203
                  23558455.695          42.800                          44.300
 122645425.074 7                  91585962.574 8  23338619.820
                  23338623.734          47.600                          51.000
 141055702.577 5                 105333969.072 6  26841958.500
                  26841963.238          35.500                          40.900
 124058955.184 7                  92641475.525 8  23607620.750
                  23607622.406          43.600                          48.300
 133058433.799 7                  99361942.529 7  25320136.648
                  25320143.141          42.300                          45.300
 123403832.008 7                  92152310.727 8  23482942.031
                  23482946.934          47.700                          50.500
 23 12 19 11 31 34.0000000  0 21G03G21G22R14G07G02R24G14R17G30R23G08
                                R15G17E25E11E24E33E12E31E10
 126226491.808 5  98358334.37544  94260077.048 6  24020077.906
  24020091.160    24020092.273          33.100          28.100          41.500
 108598097.234 7  84622124.12846                  20665473.602
  20665478.121                          43.600          37.800
 126907404.884 5  98888818.20642                  24149651.977
  24149657.984                          32.600          16.900
 101804304.023 7  79181183.302 7                  19098210.383    19098209.785
  19098215.367                          46.400          46.600
 113620758.895 7  88535685.96247                  21621284.383
  21621289.922                          42.500          43.500
 108351893.993 7  84430304.96146                  20618630.227
  20618633.238                          44.700          40.500
 105201531.480 7  81823468.676 7                  19673116.617    19673116.680
  19673120.840                          46.100          44.800
 116762441.734 6  90983673.18944  87192728.934 7  22219125.219
  22219130.785    22219135.023          38.800          27.700          46.800
 109346705.642 7  85047707.143 7                  20433956.086    20433955.824
  20433960.477                          45.600          43.700
 115380431.329 6  89906847.60447  86160734.233 8  21956146.680
  21956154.824    21956154.762          41.300          42.400          48.000
 124169954.234 5                                  23212167.039    23212166.098
                                        33.300
 113781524.604 6  88661255.86245  84967037.173 8  21651837.375
  21651845.234    21651844.516          41.200          32.400          48.500
 112542706.177 7  87533113.717 7                  21060794.648    21060794.836
  21060798.855                          43.200          43.200
 123480738.130 5  96218740.07245                  23497584.836
  23497592.195                          32.800          31.300
 134325650.128 6                 100308178.064 7  25561309.211
                  25561315.328          40.400                          44.400
 123798457.362 7                  92446926.845 7  23558057.391
                  23558059.801          42.800                          44.000
 122645298.020 7                  91585867.698 8  23338595.625
                  23338599.434          47.600                          50.900
 141058391.706 5                 105335977.210 6  26842470.125
                  26842474.605          35.800                          40.700
 124059584.583 7                  92641945.532 8  23607740.289
                  23607742.266          43.400                          48.200
 133060459.404 7                  99363455.151 7  25320521.930
                  25320528.594          42.600                          45.000
 123403074.006 7                  92151744.688 8  23482797.797
                  23482802.555          47.700                          50.800
 23 12 19 11 31 35.0000000  0 21G03G21G22R14G07G02R24G14R17G30R23G08
                                R15G17E25E11E24E33E12E31E10
 126223098.433 5  98355690.21744  94257543.087 6  24019431.938
  24019445.305    24019446.438          32.300          28.900          41.600
 108600002.354 7  84623608.64046                  20665835.961
  20665840.781                          43.600          37.800
 126904513.896 5  98886565.49542                  24149101.805
  24149107.813                          31.900          17.400
 101804783.053 7  79181555.894 7                  19098300.961    19098299.855
  19098305.250                          46.000          47.100
 113622585.064 7  88537108.95147                  21621631.672
  21621637.406                          42.600          43.400
 108352727.063 7  84430954.10646                  20618788.641
  20618791.777                          44.800          40.600
 105203204.314 7  81824769.771 7                  19673429.672    19673429.738
  19673433.672                          46.100          44.800
 116759596.818 6  90981456.37944  87190604.472 7  22218582.867
  22218589.336    22218593.754          38.900          27.400          47.100
 109344850.783 7  85046264.479 7                  20433610.180    20433609.344
  20433613.883                          45.400          44.000
 115380588.299 6  89906969.92347  86160851.441 8  21956176.727
  21956184.613    21956184.641          40.600          42.600          48.300
 124173659.688 5                                  23212858.875    23212858.676
                                        33.600
 113783407.984 6  88662723.44445  84968443.580 8  21652195.906
  21652203.508    21652202.867          41.300          32.400          48.700
 112539413.512 7  87530552.758 7                  21060178.297    21060178.828
  21060182.750                          43.000          43.100
 123478635.135 5  96217101.39045                  23497184.328
  23497192.148                          33.200          30.500
 134323377.295 6                 100306480.834 7  25560876.656
                  25560882.719          40.700                          44.300
 123796377.071 7                  92445373.362 7  23557661.789
                  23557664.008          42.600                          43.600
 122645171.269 7                  91585773.051 8  23338571.398
                  23338575.355          47.300                          50.900
 141061080.983 5                 105337985.421 6  26842981.797
                  26842986.461          35.600                          41.100
 124060214.332 7                  92642415.810 8  23607860.070
                  23607862.180          43.200                          48.200
 133062485.267 7                  99364967.956 7  25320907.633
                  25320914.023          42.600                          45.200
 123402316.424 7                  92151178.965 8  23482653.477
                  23482658.414          47.800                          51.300
 23 12 19 11 31 36.0000000  0 21G03G21G22R14G07G02R24G14R17G30R23G08
                                R15G17E25E11E24E33E12E31E10
 126219705.170 5  98353046.13244  94255009.142 6  24018785.953
  24018799.535    24018800.797          32.400          29.100          41.500
 108601907.897 7  84625093.47946                  20666198.805
  20666203.336                          43.700          37.900
 126901622.857 5  98884312.73442                  24148551.586
  24148557.590                          31.500          17.400
 101805262.964 7  79181929.155 7                  19098390.180    19098389.832
  19098395.262                          46.100          46.800
 113624411.742 7  88538532.33047                  21621979.680
  21621985.039                          42.600          43.500
 108353560.618 7  84431603.63246                  20618947.188
  20618950.375                          44.700          40.700
 105204877.620 7  81826071.231 7                  19673742.984    19673742.664
  19673746.625                          46.000          45.600
 116756752.099 6  90979239.71144  87188480.152 7  22218042.313
  22218047.844    22218052.215          38.900          27.300          47.000
 109342996.446 7  85044822.211 7                  20433263.836    20433262.895
  20433267.266                          45.600          43.800
 115380745.890 6  89907092.72147  86160969.117 8  21956206.703
  21956214.738    21956214.625          41.000          42.600          48.600
 124177365.092 5                                  23213552.766    23213551.063
                                        33.200
 113785291.466 6  88664191.08145  84969850.089 8  21652554.492
  21652561.906    21652561.219          41.400          32.400          48.800
 112536121.256 7  87527992.127 7                  21059562.281    21059562.664
  21059566.621                          42.900          43.200
 123476532.266 5  96215462.79745                  23496783.852
  23496791.902                          32.600          31.200
 134321104.570 6                 100304783.651 7  25560444.141
                  25560450.219          40.400                          44.200
 123794297.043 7                  92443820.105 7  23557265.617
                  23557268.211          42.500                          44.000
 122645044.815 7                  91585678.624 8  23338547.422
                  23338551.262          47.700                          51.000
 141063770.337 5                 105339993.707 6  26843493.781
                  26843498.164          35.800                          40.700
 124060844.515 7                  92642886.394 8  23607980.109
                  23607982.043          43.000                          48.500
 133064511.316 7                  99366480.947 7  25321293.055
                  25321299.699          42.900                          45.100
 123401559.254 7                  92150613.552 8  23482509.531
                  23482514.383          47.400                          51.500
